[{"iatacode": "HEA", "city": "cty-Afghanistan-2", "country": "AFG", "name": "Herat", "latitude": "34.210017", "longitude": "62.2283", "elevation": "977", "gmtOffset": "5"}, {"iatacode": "KBL", "city": "cty-Afghanistan-Kabul", "country": "AFG", "name": "Kabul Intl", "latitude": "34.565853", "longitude": "69.212328", "elevation": "1792", "gmtOffset": "5"}, {"iatacode": "TIA", "city": "cty-Albania-Tirane", "country": "AL", "name": "Tirana Rinas", "latitude": "41.414742", "longitude": "19.720561", "elevation": "38", "gmtOffset": "1"}, {"iatacode": "TEE", "city": "cty-Algeria-14", "country": "DZ", "name": "Cheikh Larbi Tebessi", "latitude": "35.431611", "longitude": "8.120717", "elevation": "811", "gmtOffset": "1"}, {"iatacode": "BLJ", "city": "cty-Algeria-6", "country": "DZ", "name": "Batna Airport", "latitude": "35.752106", "longitude": "6.308589", "elevation": "822", "gmtOffset": "1"}, {"iatacode": "BJA", "city": "cty-Algeria-11", "country": "DZ", "name": "Soummam", "latitude": "36.711997", "longitude": "5.069922", "elevation": "6", "gmtOffset": "1"}, {"iatacode": "TMR", "city": "cty-Algeria-19", "country": "DZ", "name": "Tamanrasset", "latitude": "22.811461", "longitude": "5.451075", "elevation": "1377", "gmtOffset": "1"}, {"iatacode": "BSK", "city": "cty-Algeria-17", "country": "DZ", "name": "Biskra", "latitude": "34.793289", "longitude": "5.738231", "elevation": "88", "gmtOffset": "1"}, {"iatacode": "CZL", "city": "cty-Algeria-4", "country": "DZ", "name": "Mohamed Boudiaf Intl", "latitude": "36.276028", "longitude": "6.620386", "elevation": "691", "gmtOffset": "1"}, {"iatacode": "QSF", "city": "cty-Algeria-7", "country": "DZ", "name": "Ain Arnat Airport", "latitude": "36.1781", "longitude": "5.32449", "elevation": "1024", "gmtOffset": "1"}, {"iatacode": "ORN", "city": "cty-Algeria-3", "country": "DZ", "name": "Es Senia", "latitude": "35.623858", "longitude": "-0.621183", "elevation": "90", "gmtOffset": "1"}, {"iatacode": "GHA", "city": "cty-Algeria-21", "country": "DZ", "name": "Noumerat", "latitude": "32.384106", "longitude": "3.794114", "elevation": "461", "gmtOffset": "1"}, {"iatacode": "AAE", "city": "cty-Algeria-5", "country": "DZ", "name": "Annaba", "latitude": "36.822225", "longitude": "7.809167", "elevation": "5", "gmtOffset": "1"}, {"iatacode": "ALG", "city": "cty-Algeria-Algiers", "country": "DZ", "name": "Houari Boumediene", "latitude": "36.691014", "longitude": "3.215408", "elevation": "25", "gmtOffset": "1"}, {"iatacode": "TLM", "city": "cty-Algeria-13", "country": "DZ", "name": "Zenata", "latitude": "35.016667", "longitude": "-1.45", "elevation": "248", "gmtOffset": "1"}, {"iatacode": "PPG", "city": "city-Pago-Pago-AMSA-AMSA", "country": "AMSA", "name": "Pago Pago Intl", "latitude": "-14.2794", "longitude": "-170.7006", "elevation": "10", "gmtOffset": "-11", "located_on": {"island": "island-Tutuila"}}, {"iatacode": "VPE", "city": "cty-Angola-Ngiva", "country": "ANG", "name": "Ondjiva Pereira Airport", "latitude": "-17.043464", "longitude": "15.683822", "elevation": "1087", "gmtOffset": "1"}, {"iatacode": "SDD", "city": "cty-Angola-Lubango", "country": "ANG", "name": "Lubango", "latitude": "-14.924733", "longitude": "13.575022", "elevation": "1762", "gmtOffset": "1"}, {"iatacode": "CAB", "city": "cty-Angola-Cabinda", "country": "ANG", "name": "Cabinda", "latitude": "-5.596992", "longitude": "12.188353", "elevation": "20", "gmtOffset": "1"}, {"iatacode": "SPP", "city": "cty-Angola-Menongue", "country": "ANG", "name": "Menongue", "latitude": "-14.657583", "longitude": "17.719833", "elevation": "1363", "gmtOffset": "1"}, {"iatacode": "LAD", "city": "cty-Angola-Luanda", "country": "ANG", "name": "Luanda 4 De Fevereiro", "latitude": "-8.858375", "longitude": "13.231178", "elevation": "74", "gmtOffset": "1"}, {"iatacode": "NOV", "city": "cty-Angola-Huambo", "country": "ANG", "name": "Huambo", "latitude": "-12.808878", "longitude": "15.760547", "elevation": "1703", "gmtOffset": "1"}, {"iatacode": "AXA", "city": "city-The-Valley-AXA-AXA", "country": "AXA", "name": "Wallblake", "latitude": "18.204834", "longitude": "-63.055084", "elevation": "39", "gmtOffset": "-4", "located_on": {"island": "island-Anguilla"}}, {"iatacode": "ANU", "city": "cty-Antigua-and-Barbuda-Saint-Johns", "country": "AG", "name": "V C Bird Intl", "latitude": "17.136749", "longitude": "-61.792667", "elevation": "19", "gmtOffset": "-4", "located_on": {"island": "island-Antigua"}}, {"iatacode": "IRJ", "city": "cty-Argentina-37", "country": "RA", "name": "La Rioja", "latitude": "-29.381636", "longitude": "-66.795839", "elevation": "438", "gmtOffset": "-3"}, {"iatacode": "JUJ", "city": "cty-Argentina-28", "country": "RA", "name": "Jujuy", "latitude": "-24.392778", "longitude": "-65.097778", "elevation": "920", "gmtOffset": "-3"}, {"iatacode": "BHI", "city": "cty-Argentina-23", "country": "RA", "name": "Comandante Espora", "latitude": "-38.724967", "longitude": "-62.169317", "elevation": "75", "gmtOffset": "-3"}, {"iatacode": "TUC", "city": "cty-Argentina-9", "country": "RA", "name": "Teniente Benjamin Matienzo", "latitude": "-26.840861", "longitude": "-65.104944", "elevation": "456", "gmtOffset": "-3"}, {"iatacode": "LUQ", "city": "cty-Argentina-36", "country": "RA", "name": "San Luis", "latitude": "-33.273192", "longitude": "-66.356422", "elevation": "710", "gmtOffset": "-3"}, {"iatacode": "SDE", "city": "cty-Argentina-22", "country": "RA", "name": "Santiago del Estero", "latitude": "-27.765617", "longitude": "-64.310122", "elevation": "200", "gmtOffset": "-3"}, {"iatacode": "SFN", "city": "cty-Argentina-15", "country": "RA", "name": "Sauce Viejo", "latitude": "-31.711666", "longitude": "-60.811668", "elevation": "17", "gmtOffset": "-3"}, {"iatacode": "CNQ", "city": "cty-Argentina-24", "country": "RA", "name": "Corrientes", "latitude": "-27.445503", "longitude": "-58.761864", "elevation": "62", "gmtOffset": "-3"}, {"iatacode": "NQN", "city": "cty-Argentina-25", "country": "RA", "name": "Presidente Peron", "latitude": "-38.949", "longitude": "-68.155711", "elevation": "273", "gmtOffset": "-3"}, {"iatacode": "SLA", "city": "cty-Argentina-16", "country": "RA", "name": "Salta", "latitude": "-24.855978", "longitude": "-65.486169", "elevation": "1246", "gmtOffset": "-3"}, {"iatacode": "AEP", "city": "cty-Argentina-Buenos-Aires", "country": "RA", "name": "Aeroparque Jorge Newbery", "latitude": "-34.559175", "longitude": "-58.415606", "elevation": "5", "gmtOffset": "-3"}, {"iatacode": "EZE", "city": "cty-Argentina-Buenos-Aires", "country": "RA", "name": "Ministro Pistarini", "latitude": "-34.822222", "longitude": "-58.535833", "elevation": "20", "gmtOffset": "-3"}, {"iatacode": "USH", "city": "cty-Argentina-Ushuaia", "country": "RA", "name": "Ushuaia Malvinas Argentinas", "latitude": "-54.843278", "longitude": "-68.29575", "elevation": "22", "gmtOffset": "-3"}, {"iatacode": "FMA", "city": "cty-Argentina-29", "country": "RA", "name": "Formosa", "latitude": "-26.212722", "longitude": "-58.228111", "elevation": "59", "gmtOffset": "-3"}, {"iatacode": "PSS", "city": "cty-Argentina-27", "country": "RA", "name": "Posadas", "latitude": "-27.385839", "longitude": "-55.970728", "elevation": "131", "gmtOffset": "-3"}, {"iatacode": "ROS", "city": "cty-Argentina-4", "country": "RA", "name": "Rosario", "latitude": "-32.903611", "longitude": "-60.785", "elevation": "26", "gmtOffset": "-3"}, {"iatacode": "RES", "city": "cty-Argentina-20", "country": "RA", "name": "Resistencia", "latitude": "-27.449986", "longitude": "-59.056125", "elevation": "53", "gmtOffset": "-3"}, {"iatacode": "RGL", "city": "cty-Argentina-Rio-Gallegos", "country": "RA", "name": "Rio Gallegos", "latitude": "-51.608875", "longitude": "-69.312636", "elevation": "19", "gmtOffset": "-3"}, {"iatacode": "CRD", "city": "cty-Argentina-32", "country": "RA", "name": "Comodoro Rivadavia", "latitude": "-45.785347", "longitude": "-67.465508", "elevation": "58", "gmtOffset": "-3"}, {"iatacode": "MDQ", "city": "cty-Argentina-11", "country": "RA", "name": "Mar Del Plata", "latitude": "-37.934167", "longitude": "-57.573333", "elevation": "22", "gmtOffset": "-3"}, {"iatacode": "MDZ", "city": "cty-Argentina-6", "country": "RA", "name": "El Plumerillo", "latitude": "-32.831717", "longitude": "-68.792856", "elevation": "704", "gmtOffset": "-3"}, {"iatacode": "COR", "city": "cty-Argentina-Cordoba", "country": "RA", "name": "Ambrosio L V Taravella", "latitude": "-31.323619", "longitude": "-64.207953", "elevation": "489", "gmtOffset": "-3"}, {"iatacode": "EVN", "city": "cty-Armenia-Yerevan", "country": "ARM", "name": "Zvartnots", "latitude": "40.147275", "longitude": "44.395881", "elevation": "865", "gmtOffset": "4"}, {"iatacode": "AUA", "city": "city-Oranjestad-ARU-ARU", "country": "ARU", "name": "Reina Beatrix Intl", "latitude": "12.501389", "longitude": "-70.015221", "elevation": "18", "gmtOffset": "-4", "located_on": {"island": "island-Aruba"}}, {"iatacode": "MEL", "city": "cty-Australia-Melbourne", "country": "AUS", "name": "Melbourne Intl", "latitude": "-37.673333", "longitude": "144.843333", "elevation": "132", "gmtOffset": "10"}, {"iatacode": "SYD", "city": "cty-Australia-Sydney", "country": "AUS", "name": "Sydney Intl", "latitude": "-33.946111", "longitude": "151.177222", "elevation": "6", "gmtOffset": "10"}, {"iatacode": "CNS", "city": "cty-Australia-Cairns", "country": "AUS", "name": "Cairns Intl", "latitude": "-16.885833", "longitude": "145.755278", "elevation": "3", "gmtOffset": "10"}, {"iatacode": "TSV", "city": "cty-Australia-13", "country": "AUS", "name": "Townsville", "latitude": "-19.2525", "longitude": "146.765278", "elevation": "5", "gmtOffset": "10"}, {"iatacode": "BNE", "city": "cty-Australia-Brisbane", "country": "AUS", "name": "Brisbane Intl", "latitude": "-27.384167", "longitude": "153.1175", "elevation": "4", "gmtOffset": "10"}, {"iatacode": "CBR", "city": "cty-Australia-8", "country": "AUS", "name": "Canberra", "latitude": "-35.306944", "longitude": "149.195", "elevation": "575", "gmtOffset": "10"}, {"iatacode": "ADL", "city": "cty-Australia-Adelaide", "country": "AUS", "name": "Adelaide Intl", "latitude": "-34.945", "longitude": "138.530556", "elevation": "6", "gmtOffset": "9.5"}, {"iatacode": "NTL", "city": "cty-Australia-7", "country": "AUS", "name": "Newcastle Airport", "latitude": "-32.78", "longitude": "151.83", "elevation": "9", "gmtOffset": "10"}, {"iatacode": "DRW", "city": "cty-Australia-Darwin", "country": "AUS", "name": "Darwin Intl", "latitude": "-12.4083333", "longitude": "130.87266", "elevation": "31", "gmtOffset": "9.5"}, {"iatacode": "PER", "city": "cty-Australia-Perth", "country": "AUS", "name": "Perth Intl", "latitude": "-31.940278", "longitude": "115.966944", "elevation": "20", "gmtOffset": "8"}, {"iatacode": "HBA", "city": "cty-Australia-11", "country": "AUS", "name": "Hobart", "latitude": "-42.836111", "longitude": "147.510278", "elevation": "4", "gmtOffset": "10", "located_on": {"island": "island-Tasmania"}}, {"iatacode": "SZG", "city": "cty-Austria-5", "country": "A", "name": "Salzburg", "latitude": "47.793304", "longitude": "13.004333", "elevation": "430", "gmtOffset": "1"}, {"iatacode": "LNZ", "city": "cty-Austria-4", "country": "A", "name": "Linz", "latitude": "48.233219", "longitude": "14.187511", "elevation": "298", "gmtOffset": "1"}, {"iatacode": "INN", "city": "cty-Austria-6", "country": "A", "name": "Innsbruck", "latitude": "47.260219", "longitude": "11.343964", "elevation": "581", "gmtOffset": "1"}, {"iatacode": "VIE", "city": "cty-Austria-Vienna", "country": "A", "name": "Schwechat", "latitude": "48.110278", "longitude": "16.569722", "elevation": "183", "gmtOffset": "1"}, {"iatacode": "GRZ", "city": "cty-Austria-3", "country": "A", "name": "Graz", "latitude": "46.991067", "longitude": "15.439628", "elevation": "340", "gmtOffset": "1"}, {"iatacode": "KLU", "city": "cty-Austria-Klagenfurt", "country": "A", "name": "Woerthersee International Airport", "latitude": "46.642514", "longitude": "14.337739", "elevation": "138", "gmtOffset": "1"}, {"iatacode": "GYD", "city": "cty-Azerbaijan-Baku", "country": "AZ", "name": "Heydar Aliyev", "latitude": "40.4675", "longitude": "50.046667", "elevation": "3", "gmtOffset": "4"}, {"iatacode": "NAS", "city": "cty-Bahamas-Nassau", "country": "BS", "name": "Lynden Pindling Intl", "latitude": "25.038958", "longitude": "-77.466231", "elevation": "5", "gmtOffset": "-5", "located_on": {"island": "island-NewProvidence"}}, {"iatacode": "BAH", "city": "cty-Bahrain-Manama", "country": "BRN", "name": "Bahrain Intl", "latitude": "26.270834", "longitude": "50.63361", "elevation": "2", "gmtOffset": "3", "located_on": {"island": "island-Bahrain"}}, {"iatacode": "DAC", "city": "cty-BD-3", "country": "BD", "name": "Zia Intl", "latitude": "23.843333", "longitude": "90.397781", "elevation": "9", "gmtOffset": "6"}, {"iatacode": "CGP", "city": "cty-BD-2", "country": "BD", "name": "Shah Amanat Intl", "latitude": "22.249611", "longitude": "91.813286", "elevation": "4", "gmtOffset": "6"}, {"iatacode": "BGI", "city": "cty-Barbados-Bridgetown", "country": "BDS", "name": "Grantley Adams Intl", "latitude": "13.074603", "longitude": "-59.492456", "elevation": "52", "gmtOffset": "-4", "located_on": {"island": "island-Barbados"}}, {"iatacode": "MSQ", "city": "cty-Belarus-Minsk", "country": "BY", "name": "Minsk National", "latitude": "53.882469", "longitude": "28.030731", "elevation": "204", "gmtOffset": "3"}, {"iatacode": "ANR", "city": "cty-Belgium-3-0", "country": "B", "name": "Deurne", "latitude": "51.189444", "longitude": "4.460278", "elevation": "12", "gmtOffset": "1"}, {"iatacode": "CRL", "city": "cty-Belgium-5-0", "country": "B", "name": "Brussels South", "latitude": "50.459197", "longitude": "4.453817", "elevation": "187", "gmtOffset": "1"}, {"iatacode": "LGG", "city": "cty-Belgium-6-0", "country": "B", "name": "A\u00e9roport de Li\u00e8ge", "latitude": "50.6375", "longitude": "5.4433", "elevation": "201", "gmtOffset": "1"}, {"iatacode": "BRU", "city": "cty-Belgium-Brussels", "country": "B", "name": "Brussels Natl", "latitude": "50.901389", "longitude": "4.484444", "elevation": "56", "gmtOffset": "1"}, {"iatacode": "BZE", "city": "cty-Belize-Belize", "country": "BZ", "name": "Philip S W Goldson Intl", "latitude": "17.539144", "longitude": "-88.308203", "elevation": "5", "gmtOffset": "-6"}, {"iatacode": "COO", "city": "cty-Benin-Cotonou", "country": "BEN", "name": "Cadjehoun", "latitude": "6.357228", "longitude": "2.384353", "elevation": "6", "gmtOffset": "1"}, {"iatacode": "BDA", "city": "city-Hamilton-BERM-BERM", "country": "BERM", "name": "Bermuda Intl", "latitude": "32.364042", "longitude": "-64.678703", "elevation": "4", "gmtOffset": "-4", "located_on": {"island": "island-GrandBermuda"}}, {"iatacode": "PBH", "city": "cty-Bhutan-Thimphu", "country": "BHT", "name": "Paro", "latitude": "27.403192", "longitude": "89.424606", "elevation": "2235", "gmtOffset": "6"}, {"iatacode": "CIJ", "city": "cty-BOL-6", "country": "BOL", "name": "Heroes Del Acre", "latitude": "-11.040436", "longitude": "-68.782972", "elevation": "272", "gmtOffset": "-4"}, {"iatacode": "LPB", "city": "cty-BOL-1", "country": "BOL", "name": "El Alto Intl", "latitude": "-16.513339", "longitude": "-68.192256", "elevation": "4063", "gmtOffset": "-4"}, {"iatacode": "VVI", "city": "cty-BOL-4", "country": "BOL", "name": "Viru Viru Intl", "latitude": "-17.644756", "longitude": "-63.135364", "elevation": "373", "gmtOffset": "-4"}, {"iatacode": "SRE", "city": "cty-BOL-7", "country": "BOL", "name": "Juana Azurduy De Padilla", "latitude": "-19.007083", "longitude": "-65.288747", "elevation": "2905", "gmtOffset": "-4"}, {"iatacode": "TDD", "city": "cty-BOL-5", "country": "BOL", "name": "Tte Av Jorge Henrich Arauz", "latitude": "-14.818739", "longitude": "-64.918019", "elevation": "155", "gmtOffset": "-4"}, {"iatacode": "TJA", "city": "cty-BOL-9", "country": "BOL", "name": "Capitan Oriel Lea Plaza", "latitude": "-21.555736", "longitude": "-64.701325", "elevation": "1855", "gmtOffset": "-4"}, {"iatacode": "CBB", "city": "cty-BOL-8", "country": "BOL", "name": "Jorge Wilsterman", "latitude": "-17.421058", "longitude": "-66.177114", "elevation": "2549", "gmtOffset": "-4"}, {"iatacode": "SJJ", "city": "cty-BIH-1", "country": "BIH", "name": "Sarajevo", "latitude": "43.824583", "longitude": "18.331467", "elevation": "521", "gmtOffset": "1"}, {"iatacode": "GBE", "city": "cty-Botswana-Gaborone", "country": "RB", "name": "Sir Seretse Khama Intl", "latitude": "-24.555225", "longitude": "25.918208", "elevation": "1006", "gmtOffset": "2"}, {"iatacode": "REC", "city": "cty-Brazil-Recife", "country": "BR", "name": "Guararapes Gilberto Freyre Intl", "latitude": "-8.126794", "longitude": "-34.923039", "elevation": "10", "gmtOffset": "-3"}, {"iatacode": "BSB", "city": "cty-Brazil-Brasilia", "country": "BR", "name": "Presidente Juscelino Kubitschek", "latitude": "-15.8711", "longitude": "-47.918625", "elevation": "1061", "gmtOffset": "-3"}, {"iatacode": "BVB", "city": "cty-Brazil-134", "country": "BR", "name": "Boa Vista", "latitude": "2.846311", "longitude": "-60.690069", "elevation": "84", "gmtOffset": "-4"}, {"iatacode": "RBR", "city": "cty-Brazil-85", "country": "BR", "name": "Rio Branco", "latitude": "-9.87", "longitude": "-67.89", "elevation": "193", "gmtOffset": "-5"}, {"iatacode": "UDI", "city": "cty-Brazil-34", "country": "BR", "name": "Ten Cel Av Cesar Bombonato", "latitude": "-18.882844", "longitude": "-48.225594", "elevation": "943", "gmtOffset": "-3"}, {"iatacode": "MCZ", "city": "cty-Brazil-19", "country": "BR", "name": "Zumbi Dos Palmares", "latitude": "-9.510808", "longitude": "-35.791678", "elevation": "118", "gmtOffset": "-3"}, {"iatacode": "MCP", "city": "cty-Brazil-93", "country": "BR", "name": "Macapa", "latitude": ".050664", "longitude": "-51.072178", "elevation": "17", "gmtOffset": "-3"}, {"iatacode": "MAO", "city": "cty-Brazil-12", "country": "BR", "name": "Eduardo Gomes Intl", "latitude": "-3.038611", "longitude": "-60.049721", "elevation": "80", "gmtOffset": "-4"}, {"iatacode": "VIX", "city": "cty-Brazil-71", "country": "BR", "name": "Goiabeiras", "latitude": "-20.258056", "longitude": "-40.286389", "elevation": "3", "gmtOffset": "-3"}, {"iatacode": "CWB", "city": "cty-Brazil-Curitiba", "country": "BR", "name": "Afonso Pena", "latitude": "-25.528475", "longitude": "-49.175775", "elevation": "911", "gmtOffset": "-3"}, {"iatacode": "STM", "city": "cty-Brazil-74", "country": "BR", "name": "Santarem", "latitude": "-2.422431", "longitude": "-54.792789", "elevation": "60", "gmtOffset": "-3"}, {"iatacode": "LDB", "city": "cty-Brazil-40", "country": "BR", "name": "Londrina", "latitude": "-23.333625", "longitude": "-51.130072", "elevation": "569", "gmtOffset": "-3"}, {"iatacode": "CGB", "city": "cty-Brazil-36", "country": "BR", "name": "Marechal Rondon", "latitude": "-15.652931", "longitude": "-56.116719", "elevation": "188", "gmtOffset": "-4"}, {"iatacode": "CGR", "city": "cty-Brazil-26", "country": "BR", "name": "Campo Grande", "latitude": "-20.468667", "longitude": "-54.6725", "elevation": "559", "gmtOffset": "-4"}, {"iatacode": "CGH", "city": "cty-Brazil-Sao-Paulo", "country": "BR", "name": "Congonhas", "latitude": "-23.626692", "longitude": "-46.655375", "elevation": "802", "gmtOffset": "-3"}, {"iatacode": "SDU", "city": "cty-Brazil-3", "country": "BR", "name": "Santos Dumont", "latitude": "-22.910461", "longitude": "-43.163133", "elevation": "3", "gmtOffset": "-3"}, {"iatacode": "SSA", "city": "cty-Brazil-Salvador", "country": "BR", "name": "Deputado Luis Eduardo Magalhaes", "latitude": "-12.910994", "longitude": "-38.331044", "elevation": "20", "gmtOffset": "-3"}, {"iatacode": "CNF", "city": "cty-Brazil-Belo-Horizonte", "country": "BR", "name": "Tancredo Neves Intl", "latitude": "-19.63375", "longitude": "-43.968856", "elevation": "828", "gmtOffset": "-3"}, {"iatacode": "SLZ", "city": "cty-Brazil-18", "country": "BR", "name": "Marechal Cunha Machado Intl", "latitude": "-2.585361", "longitude": "-44.234139", "elevation": "54", "gmtOffset": "-3"}, {"iatacode": "CPQ", "city": "cty-Brazil-15", "country": "BR", "name": "Amarais Airport", "latitude": "-22.8592", "longitude": "-47.1082", "elevation": "612", "gmtOffset": "-3"}, {"iatacode": "VCP", "city": "cty-Brazil-15", "country": "BR", "name": "Viracopos", "latitude": "-23.0075", "longitude": "-47.134444", "elevation": "662", "gmtOffset": "-3"}, {"iatacode": "AJU", "city": "cty-Brazil-38", "country": "BR", "name": "Santa Maria", "latitude": "-10.984", "longitude": "-37.070333", "elevation": "7", "gmtOffset": "-3"}, {"iatacode": "UBA", "city": "cty-Brazil-78", "country": "BR", "name": "Uberaba", "latitude": "-19.765", "longitude": "-47.964778", "elevation": "809", "gmtOffset": "-3"}, {"iatacode": "BEL", "city": "cty-Brazil-Belem", "country": "BR", "name": "Val De Cans Intl", "latitude": "-1.37925", "longitude": "-48.476292", "elevation": "16", "gmtOffset": "-3"}, {"iatacode": "THE", "city": "cty-Brazil-23", "country": "BR", "name": "Senador Petronio Portella", "latitude": "-5.059942", "longitude": "-42.823478", "elevation": "67", "gmtOffset": "-3"}, {"iatacode": "NAT", "city": "cty-Brazil-22", "country": "BR", "name": "Augusto Severo", "latitude": "-5.911417", "longitude": "-35.247717", "elevation": "52", "gmtOffset": "-3"}, {"iatacode": "PET", "city": "cty-Brazil-54", "country": "BR", "name": "Pelotas", "latitude": "-31.718353", "longitude": "-52.327689", "elevation": "18", "gmtOffset": "-3"}, {"iatacode": "RAO", "city": "cty-Brazil-31", "country": "BR", "name": "Leite Lopes", "latitude": "-21.134167", "longitude": "-47.774189", "elevation": "549", "gmtOffset": "-3"}, {"iatacode": "RVD", "city": "cty-Brazil-203", "country": "BR", "name": "General Leite de Castro Airport", "latitude": "-17.790278", "longitude": "-50.918333", "elevation": "684", "gmtOffset": "-3"}, {"iatacode": "GVR", "city": "cty-Brazil-81", "country": "BR", "name": "Governador Valadares Airport", "latitude": "-18.8952", "longitude": "-41.9822", "elevation": "171", "gmtOffset": "-3"}, {"iatacode": "IPN", "city": "cty-Brazil-99", "country": "BR", "name": "Usiminas", "latitude": "-19.470722", "longitude": "-42.487583", "elevation": "239", "gmtOffset": "-3"}, {"iatacode": "CXJ", "city": "cty-Brazil-50", "country": "BR", "name": "Campo Dos Bugres", "latitude": "-29.197064", "longitude": "-51.187536", "elevation": "754", "gmtOffset": "-3"}, {"iatacode": "GIG", "city": "cty-Brazil-3", "country": "BR", "name": "Galeao Antonio Carlos Jobim", "latitude": "-22.808903", "longitude": "-43.243647", "elevation": "9", "gmtOffset": "-3"}, {"iatacode": "FOR", "city": "cty-Brazil-Fortaleza", "country": "BR", "name": "Pinto Martins Intl", "latitude": "-3.776283", "longitude": "-38.532556", "elevation": "25", "gmtOffset": "-3"}, {"iatacode": "PLU", "city": "cty-Brazil-Belo-Horizonte", "country": "BR", "name": "Pampulha Carlos Drummond De Andrade", "latitude": "-19.851181", "longitude": "-43.950628", "elevation": "789", "gmtOffset": "-3"}, {"iatacode": "PVH", "city": "cty-Brazil-58", "country": "BR", "name": "Governador Jorge Teixeira De Oliveira", "latitude": "-8.709294", "longitude": "-63.902281", "elevation": "90", "gmtOffset": "-4"}, {"iatacode": "GYN", "city": "cty-Brazil-13", "country": "BR", "name": "Santa Genoveva", "latitude": "-16.632033", "longitude": "-49.220686", "elevation": "747", "gmtOffset": "-3"}, {"iatacode": "POA", "city": "cty-Brazil-Porto-Alegre", "country": "BR", "name": "Salgado Filho", "latitude": "-29.994428", "longitude": "-51.171428", "elevation": "3", "gmtOffset": "-3"}, {"iatacode": "GRU", "city": "cty-Brazil-Sao-Paulo", "country": "BR", "name": "Guarulhos Gov Andre Franco Montouro", "latitude": "-23.432075", "longitude": "-46.469511", "elevation": "750", "gmtOffset": "-3"}, {"iatacode": "IMP", "city": "cty-Brazil-87", "country": "BR", "name": "Prefeito Renato Moreira", "latitude": "-5.531292", "longitude": "-47.46005", "elevation": "131", "gmtOffset": "-3"}, {"iatacode": "IOS", "city": "cty-Brazil-75", "country": "BR", "name": "Ilheus", "latitude": "-14.815964", "longitude": "-39.033197", "elevation": "5", "gmtOffset": "-3"}, {"iatacode": "EIS", "city": "city-Road-Town-BVIR-BVIR", "country": "BVIR", "name": "Terrance B Lettsome Intl", "latitude": "18.444834", "longitude": "-64.542975", "elevation": "5", "gmtOffset": "-4", "located_on": {"island": "island-Tortola"}}, {"iatacode": "BWN", "city": "cty-Brunei-Bandar-Seri-Begawan", "country": "BRU", "name": "Brunei Intl", "latitude": "4.9442", "longitude": "114.928353", "elevation": "22", "gmtOffset": "8", "located_on": {"island": "island-Borneo"}}, {"iatacode": "BOJ", "city": "cty-Bulgaria-4", "country": "BG", "name": "Burgas", "latitude": "42.569583", "longitude": "27.515236", "elevation": "41", "gmtOffset": "2"}, {"iatacode": "VAR", "city": "cty-Bulgaria-3", "country": "BG", "name": "Varna", "latitude": "43.232072", "longitude": "27.825106", "elevation": "70", "gmtOffset": "2"}, {"iatacode": "PDV", "city": "cty-Bulgaria-2", "country": "BG", "name": "Plovdiv", "latitude": "42.067806", "longitude": "24.850833", "elevation": "182", "gmtOffset": "2"}, {"iatacode": "SOF", "city": "cty-Bulgaria-1", "country": "BG", "name": "Sofia", "latitude": "42.695194", "longitude": "23.406167", "elevation": "531", "gmtOffset": "2"}, {"iatacode": "BOY", "city": "cty-Burkina-BoboDioulasso", "country": "BF", "name": "Bobo Dioulasso", "latitude": "11.160056", "longitude": "-4.330969", "elevation": "461", "gmtOffset": "0"}, {"iatacode": "OUA", "city": "cty-Burkina-Faso-Ouagadougou", "country": "BF", "name": "Ouagadougou", "latitude": "12.353194", "longitude": "-1.512417", "elevation": "316", "gmtOffset": "0"}, {"iatacode": "MDL", "city": "cty-Burma-Mandalay", "country": "MYA", "name": "Mandalay Intl", "latitude": "21.702156", "longitude": "95.977928", "elevation": "91", "gmtOffset": "6.5"}, {"iatacode": "RGN", "city": "cty-Burma-Rangoon", "country": "MYA", "name": "Yangon Intl", "latitude": "16.907305", "longitude": "96.133222", "elevation": "33", "gmtOffset": "6.5"}, {"iatacode": "BJM", "city": "cty-Burundi-Bujumbura", "country": "BI", "name": "Bujumbura Intl", "latitude": "-3.324019", "longitude": "29.318519", "elevation": "787", "gmtOffset": "2"}, {"iatacode": "PNH", "city": "cty-Cambodia-Phnom-Penh", "country": "K", "name": "Phnom Penh Intl", "latitude": "11.546556", "longitude": "104.844139", "elevation": "12", "gmtOffset": "7"}, {"iatacode": "DLA", "city": "cty-Cameroon-2", "country": "CAM", "name": "Douala", "latitude": "4.006081", "longitude": "9.719481", "elevation": "10", "gmtOffset": "1"}, {"iatacode": "NSI", "city": "cty-Cameroon-3", "country": "CAM", "name": "Yaounde Nsimalen", "latitude": "3.722556", "longitude": "11.553269", "elevation": "695", "gmtOffset": "1"}, {"iatacode": "YQX", "city": "cty-Canada-Gander", "country": "CDN", "name": "Gander Intl", "latitude": "48.936944", "longitude": "-54.568056", "elevation": "151", "gmtOffset": "-4", "located_on": {"island": "island-Newfoundland"}}, {"iatacode": "YXY", "city": "cty-Canada-Whitehorse", "country": "CDN", "name": "Whitehorse Intl", "latitude": "60.709553", "longitude": "-135.067269", "elevation": "706", "gmtOffset": "-8"}, {"iatacode": "YFB", "city": "cty-Canada-Iqaluit", "country": "CDN", "name": "Iqaluit", "latitude": "63.75639", "longitude": "-68.555832", "elevation": "34", "gmtOffset": "-5", "located_on": {"island": "island-Baffin_Island"}}, {"iatacode": "YYT", "city": "cty-Canada-Saint-Johns", "country": "CDN", "name": "St Johns Intl", "latitude": "47.61861", "longitude": "-52.751945", "elevation": "141", "gmtOffset": "-3.5", "located_on": {"island": "island-Newfoundland"}}, {"iatacode": "YYZ", "city": "cty-Canada-4", "country": "CDN", "name": "Lester B Pearson Intl", "latitude": "43.677223", "longitude": "-79.630556", "elevation": "173", "gmtOffset": "-5"}, {"iatacode": "YYC", "city": "cty-Canada-3", "country": "CDN", "name": "Calgary Intl", "latitude": "51.113888", "longitude": "-114.020278", "elevation": "1084", "gmtOffset": "-7"}, {"iatacode": "YYJ", "city": "cty-Canada-Victoria", "country": "CDN", "name": "Victoria Intl", "latitude": "48.646944", "longitude": "-123.425833", "elevation": "19", "gmtOffset": "-8", "located_on": {"island": "island-Vancouver_Island"}}, {"iatacode": "YXU", "city": "cty-Canada-15", "country": "CDN", "name": "London", "latitude": "43.033056", "longitude": "-81.151111", "elevation": "278", "gmtOffset": "-5"}, {"iatacode": "YXE", "city": "cty-Canada-19", "country": "CDN", "name": "Saskatoon J G Diefenbaker Intl", "latitude": "52.170834", "longitude": "-106.699722", "elevation": "504", "gmtOffset": "-6"}, {"iatacode": "YZF", "city": "cty-Canada-Yellowknife", "country": "CDN", "name": "Yellowknife", "latitude": "62.462778", "longitude": "-114.440278", "elevation": "206", "gmtOffset": "-7"}, {"iatacode": "YQB", "city": "cty-Canada-22", "country": "CDN", "name": "Quebec Jean Lesage Intl", "latitude": "46.791111", "longitude": "-71.393333", "elevation": "74", "gmtOffset": "-5"}, {"iatacode": "YQT", "city": "cty-Canada-32", "country": "CDN", "name": "Thunder Bay", "latitude": "48.371944", "longitude": "-89.323889", "elevation": "199", "gmtOffset": "-5"}, {"iatacode": "YQR", "city": "cty-Canada-20", "country": "CDN", "name": "Regina Intl", "latitude": "50.431944", "longitude": "-104.665833", "elevation": "577", "gmtOffset": "-6"}, {"iatacode": "YOW", "city": "cty-Canada-13", "country": "CDN", "name": "Ottawa Macdonald Cartier Intl", "latitude": "45.3225", "longitude": "-75.669167", "elevation": "114", "gmtOffset": "-5"}, {"iatacode": "YUL", "city": "cty-Canada-2", "country": "CDN", "name": "Pierre Elliott Trudeau Intl", "latitude": "45.470556", "longitude": "-73.740833", "elevation": "36", "gmtOffset": "-5"}, {"iatacode": "YTZ", "city": "cty-Canada-4", "country": "CDN", "name": "City Centre", "latitude": "43.627499", "longitude": "-79.396167", "elevation": "77", "gmtOffset": "-5"}, {"iatacode": "YWG", "city": "cty-Canada-5", "country": "CDN", "name": "Winnipeg Intl", "latitude": "49.910036", "longitude": "-97.239886", "elevation": "239", "gmtOffset": "-6"}, {"iatacode": "YVR", "city": "cty-Canada-9", "country": "CDN", "name": "Vancouver Intl", "latitude": "49.193889", "longitude": "-123.184444", "elevation": "4", "gmtOffset": "-8"}, {"iatacode": "YHM", "city": "cty-Canada-11", "country": "CDN", "name": "Hamilton", "latitude": "43.173611", "longitude": "-79.935", "elevation": "238", "gmtOffset": "-5"}, {"iatacode": "YHZ", "city": "cty-Canada-31", "country": "CDN", "name": "Halifax Intl", "latitude": "44.880833", "longitude": "-63.50861", "elevation": "145", "gmtOffset": "-4"}, {"iatacode": "YEG", "city": "cty-Canada-6", "country": "CDN", "name": "Edmonton Intl", "latitude": "53.309723", "longitude": "-113.579722", "elevation": "723", "gmtOffset": "-7"}, {"iatacode": "RAI", "city": "cty-Cape-Verde-Praia", "country": "CV", "name": "Praia International Airport", "latitude": "14.9245", "longitude": "-23.4935", "elevation": "70", "gmtOffset": "-1", "located_on": {"island": "island-Santiago"}}, {"iatacode": "LYB", "country": "CAYM", "name": "Edward Bodden Airfield", "latitude": "19.6591666667", "longitude": "-80.09083333", "elevation": "1", "gmtOffset": "-5", "located_on": {"island": "island-Little_Cayman"}}, {"iatacode": "GCM", "city": "city-George-Town-CAYM-CAYM", "country": "CAYM", "name": "Owen Roberts Intl", "latitude": "19.292778", "longitude": "-81.35775", "elevation": "2", "gmtOffset": "-5", "located_on": {"island": "island-GrandCayman"}}, {"iatacode": "CYB", "country": "CAYM", "name": "Gerrard Smith Intl", "latitude": "19.686981", "longitude": "-79.882789", "elevation": "2", "gmtOffset": "-5", "located_on": {"island": "island-Cayman_Brac"}}, {"iatacode": "BGF", "city": "cty-Central-African-Republic-Bangui", "country": "RCA", "name": "Bangui M Poko", "latitude": "4.398475", "longitude": "18.518786", "elevation": "368", "gmtOffset": "1"}, {"iatacode": "NDJ", "city": "cty-Chad-NDjamena", "country": "TCH", "name": "Ndjamena Hassan Djamous", "latitude": "12.133689", "longitude": "15.034019", "elevation": "295", "gmtOffset": "1"}, {"iatacode": "ANF", "city": "cty-Chile-2", "country": "RCH", "name": "Cerro Moreno Intl", "latitude": "-23.444478", "longitude": "-70.4451", "elevation": "139", "gmtOffset": "-4"}, {"iatacode": "ZAL", "city": "cty-Chile-14", "country": "RCH", "name": "Pichoy", "latitude": "-39.649956", "longitude": "-73.086111", "elevation": "18", "gmtOffset": "-4"}, {"iatacode": "LSC", "city": "cty-Chile-4", "country": "RCH", "name": "La Florida", "latitude": "-29.916233", "longitude": "-71.199522", "elevation": "147", "gmtOffset": "-4"}, {"iatacode": "CPO", "city": "cty-Chile-3", "country": "RCH", "name": "Copiapo", "latitude": "-27", "longitude": "-70", "elevation": "305", "gmtOffset": "-4"}, {"iatacode": "CCP", "city": "cty-Chile-8", "country": "RCH", "name": "Carriel Sur Intl", "latitude": "-36.77265", "longitude": "-73.063106", "elevation": "8", "gmtOffset": "-4"}, {"iatacode": "ZCO", "city": "cty-Chile-9", "country": "RCH", "name": "Maquehue", "latitude": "-38.766819", "longitude": "-72.637097", "elevation": "93", "gmtOffset": "-4"}, {"iatacode": "SCL", "city": "cty-Chile-13", "country": "RCH", "name": "Arturo Merino Benitez Intl", "latitude": "-33.392975", "longitude": "-70.785803", "elevation": "474", "gmtOffset": "-4"}, {"iatacode": "IQQ", "city": "cty-Chile-1", "country": "RCH", "name": "Diego Aracena Intl", "latitude": "-20.535222", "longitude": "-70.181275", "elevation": "47", "gmtOffset": "-4"}, {"iatacode": "ARI", "city": "cty-Chile-15", "country": "RCH", "name": "Chacalluta", "latitude": "-18.348531", "longitude": "-70.338742", "elevation": "51", "gmtOffset": "-4"}, {"iatacode": "PMC", "city": "cty-Chile-10", "country": "RCH", "name": "El Tepual Intl", "latitude": "-41.438886", "longitude": "-73.093953", "elevation": "90", "gmtOffset": "-4"}, {"iatacode": "PUQ", "city": "cty-Chile-12", "country": "RCH", "name": "Carlos Ibanez Del Campo Intl", "latitude": "-53.002642", "longitude": "-70.854586", "elevation": "42", "gmtOffset": "-4"}, {"iatacode": "HGH", "city": "cty-China-29", "country": "CN", "name": "Xiaoshan", "latitude": "30.229503", "longitude": "120.434453", "elevation": "7", "gmtOffset": "8"}, {"iatacode": "XMN", "city": "cty-China-92", "country": "CN", "name": "Gaoqi", "latitude": "24.544036", "longitude": "118.127739", "elevation": "18", "gmtOffset": "8"}, {"iatacode": "HLD", "city": "cty-China-208", "country": "CN", "name": "Dongshan", "latitude": "49.204997", "longitude": "119.825", "elevation": "661", "gmtOffset": "8"}, {"iatacode": "XFN", "city": "cty-China-82", "country": "CN", "name": "Xiangfan Airport", "latitude": "32.1506", "longitude": "112.291", "gmtOffset": "8"}, {"iatacode": "XIC", "city": "cty-China-270", "country": "CN", "name": "Qingshan", "latitude": "27.989083", "longitude": "102.184361", "elevation": "1559", "gmtOffset": "8"}, {"iatacode": "HAK", "city": "cty-China-133", "country": "CN", "name": "Meilan", "latitude": "19.934856", "longitude": "110.458961", "elevation": "23", "gmtOffset": "8", "located_on": {"island": "island-Hainan"}}, {"iatacode": "HET", "city": "cty-China-53", "country": "CN", "name": "Baita Airport", "latitude": "40.851422", "longitude": "111.824103", "elevation": "1084", "gmtOffset": "8"}, {"iatacode": "PEK", "city": "cty-China-3", "country": "CN", "name": "Capital Intl", "latitude": "40.080111", "longitude": "116.584556", "elevation": "35", "gmtOffset": "8"}, {"iatacode": "PVG", "city": "cty-China-Shanghai", "country": "CN", "name": "Pudong", "latitude": "31.143378", "longitude": "121.805214", "elevation": "4", "gmtOffset": "8"}, {"iatacode": "NGB", "city": "cty-China-40", "country": "CN", "name": "Ningbo Lishe", "latitude": "29.82", "longitude": "121.46", "elevation": "4", "gmtOffset": "8"}, {"iatacode": "WXN", "city": "cty-China-240", "country": "CN", "name": "Wanzhou Wuqiao Airport", "latitude": "30.8361", "longitude": "108.406", "elevation": "567", "gmtOffset": "8"}, {"iatacode": "WUH", "city": "cty-China-7", "country": "CN", "name": "Tianhe", "latitude": "30.783758", "longitude": "114.2081", "elevation": "34", "gmtOffset": "8"}, {"iatacode": "WUX", "city": "cty-China-46", "country": "CN", "name": "Wuxi Airport", "latitude": "31.4944", "longitude": "120.429", "elevation": "5", "gmtOffset": "8"}, {"iatacode": "FOC", "city": "cty-China-45", "country": "CN", "name": "Fuzhou Changle", "latitude": "25.93", "longitude": "119.65", "elevation": "14", "gmtOffset": "8"}, {"iatacode": "WNZ", "city": "cty-China-85", "country": "CN", "name": "Wenzhou Longwan Airport", "latitude": "27.9122", "longitude": "120.852", "gmtOffset": "8"}, {"iatacode": "INC", "city": "cty-China-101", "country": "CN", "name": "Yinchuan", "latitude": "38.481944", "longitude": "106.009167", "elevation": "1098", "gmtOffset": "8"}, {"iatacode": "ZUH", "city": "cty-China-228", "country": "CN", "name": "Zhuhai Airport", "latitude": "22.0064", "longitude": "113.376", "elevation": "7", "gmtOffset": "8"}, {"iatacode": "HRB", "city": "cty-China-10", "country": "CN", "name": "Taiping", "latitude": "45.623403", "longitude": "126.250328", "elevation": "139", "gmtOffset": "8"}, {"iatacode": "JMU", "city": "cty-China-65", "country": "CN", "name": "Jiamusi Airport", "latitude": "46.843394", "longitude": "130.465389", "elevation": "80", "gmtOffset": "8"}, {"iatacode": "CGQ", "city": "cty-China-17", "country": "CN", "name": "Changchun", "latitude": "43.5412", "longitude": "125.1201", "elevation": "69", "gmtOffset": "8"}, {"iatacode": "CGO", "city": "cty-China-20", "country": "CN", "name": "Xinzheng", "latitude": "34.519672", "longitude": "113.840889", "elevation": "151", "gmtOffset": "8"}, {"iatacode": "LHW", "city": "cty-China-23", "country": "CN", "name": "Lanzhou Airport", "latitude": "36.117", "longitude": "103.617", "elevation": "1948", "gmtOffset": "8"}, {"iatacode": "SJW", "city": "cty-China-31", "country": "CN", "name": "Shijiazhuang Daguocun International Airport", "latitude": "38.280686", "longitude": "114.6973", "elevation": "71", "gmtOffset": "8"}, {"iatacode": "CKG", "city": "cty-China-9", "country": "CN", "name": "Jiangbei", "latitude": "29.719217", "longitude": "106.641678", "elevation": "416", "gmtOffset": "8"}, {"iatacode": "CSX", "city": "cty-China-30", "country": "CN", "name": "Huanghua", "latitude": "28.189158", "longitude": "113.219633", "elevation": "66", "gmtOffset": "8"}, {"iatacode": "BHY", "city": "cty-China-312", "country": "CN", "name": "Beihai Airport", "latitude": "21.5394", "longitude": "109.294", "gmtOffset": "8"}, {"iatacode": "TGO", "city": "cty-China-144", "country": "CN", "name": "Tongliao Airport", "latitude": "43.5567", "longitude": "122.2", "elevation": "730", "gmtOffset": "8"}, {"iatacode": "KHN", "city": "cty-China-28", "country": "CN", "name": "Changbei Intl", "latitude": "28.865", "longitude": "115.9", "elevation": "44", "gmtOffset": "8"}, {"iatacode": "KMG", "city": "cty-China-22", "country": "CN", "name": "Wujiaba", "latitude": "24.992364", "longitude": "102.743536", "elevation": "1895", "gmtOffset": "8"}, {"iatacode": "TSN", "city": "cty-China-5", "country": "CN", "name": "Binhai", "latitude": "39.124353", "longitude": "117.346183", "elevation": "3", "gmtOffset": "8"}, {"iatacode": "BAV", "city": "cty-China-35", "country": "CN", "name": "Baotou Airport", "latitude": "40.56", "longitude": "109.997", "elevation": "1013", "gmtOffset": "8"}, {"iatacode": "NDG", "city": "cty-China-26", "country": "CN", "name": "Qiqihar Sanjiazi Airport", "latitude": "47.239628", "longitude": "123.918131", "elevation": "145", "gmtOffset": "8"}, {"iatacode": "NNG", "city": "cty-China-41", "country": "CN", "name": "Wuxu", "latitude": "22.608267", "longitude": "108.172442", "elevation": "128", "gmtOffset": "8"}, {"iatacode": "NKG", "city": "cty-China-13", "country": "CN", "name": "Lukou", "latitude": "31.742042", "longitude": "118.862025", "elevation": "15", "gmtOffset": "8"}, {"iatacode": "URC", "city": "cty-China-37", "country": "CN", "name": "Diwopu", "latitude": "43.907106", "longitude": "87.474244", "elevation": "648", "gmtOffset": "8"}, {"iatacode": "NTG", "city": "cty-China-109", "country": "CN", "name": "Nantong Airport", "latitude": "32.0708", "longitude": "120.976", "gmtOffset": "8"}, {"iatacode": "MIG", "city": "cty-China-139", "country": "CN", "name": "Mianyang Airport", "latitude": "31.4281", "longitude": "104.741", "gmtOffset": "8"}, {"iatacode": "TYN", "city": "cty-China-19", "country": "CN", "name": "Wusu", "latitude": "37.746897", "longitude": "112.628428", "elevation": "785", "gmtOffset": "8"}, {"iatacode": "CAN", "city": "cty-China-8", "country": "CN", "name": "Baiyun Intl", "latitude": "23.392436", "longitude": "113.298786", "elevation": "15", "gmtOffset": "8"}, {"iatacode": "LZO", "city": "cty-China-140", "country": "CN", "name": "Luzhou Airport", "latitude": "28.8522", "longitude": "105.393", "gmtOffset": "8"}, {"iatacode": "LYI", "city": "cty-China-112", "country": "CN", "name": "Shubuling Airport", "latitude": "35.0461", "longitude": "118.412", "gmtOffset": "8"}, {"iatacode": "LXA", "city": "cty-China-324", "country": "CN", "name": "Lhasa-Gonggar", "latitude": "29.297778", "longitude": "90.911944", "elevation": "4005", "gmtOffset": "8"}, {"iatacode": "WEH", "city": "cty-China-286", "country": "CN", "name": "Weihai Airport", "latitude": "37.1871", "longitude": "122.229", "elevation": "44", "gmtOffset": "8"}, {"iatacode": "MDG", "city": "cty-China-57", "country": "CN", "name": "Mudanjiang", "latitude": "44.523889", "longitude": "129.568889", "elevation": "269", "gmtOffset": "8"}, {"iatacode": "DLC", "city": "cty-China-15", "country": "CN", "name": "Zhoushuizi", "latitude": "38.965667", "longitude": "121.5386", "elevation": "33", "gmtOffset": "8"}, {"iatacode": "TNA", "city": "cty-China-16", "country": "CN", "name": "Jinan", "latitude": "36.857214", "longitude": "117.215992", "elevation": "23", "gmtOffset": "8"}, {"iatacode": "SYX", "city": "cty-China-332", "country": "CN", "name": "Phoenix International", "latitude": "18.302897", "longitude": "109.412272", "elevation": "28", "gmtOffset": "8", "located_on": {"island": "island-Hainan"}}, {"iatacode": "KWE", "city": "cty-China-21", "country": "CN", "name": "Longdongbao", "latitude": "26.538522", "longitude": "106.800703", "elevation": "1139", "gmtOffset": "8"}, {"iatacode": "SZX", "city": "cty-China-105", "country": "CN", "name": "Baoan Intl", "latitude": "22.639258", "longitude": "113.810664", "elevation": "4", "gmtOffset": "8"}, {"iatacode": "CTU", "city": "cty-China-11", "country": "CN", "name": "Shuangliu", "latitude": "30.578528", "longitude": "103.947086", "elevation": "495", "gmtOffset": "8"}, {"iatacode": "YNJ", "city": "cty-China-157", "country": "CN", "name": "Yanji Airport", "latitude": "42.8828", "longitude": "129.451258", "elevation": "190", "gmtOffset": "8"}, {"iatacode": "YNT", "city": "cty-China-72", "country": "CN", "name": "Laishan", "latitude": "37.401667", "longitude": "121.371667", "elevation": "18", "gmtOffset": "8"}, {"iatacode": "YNZ", "city": "cty-China-126", "country": "CN", "name": "Yancheng Airport", "latitude": "33.3856", "longitude": "120.125", "gmtOffset": "8"}, {"iatacode": "YIH", "city": "cty-China-91", "country": "CN", "name": "Yichang Airport", "latitude": "30.671", "longitude": "111.441", "elevation": "205", "gmtOffset": "8"}, {"iatacode": "YBP", "city": "cty-China-154", "country": "CN", "name": "Yibin", "latitude": "28.800278", "longitude": "104.544444", "elevation": "305", "gmtOffset": "8"}, {"iatacode": "XUZ", "city": "cty-China-47", "country": "CN", "name": "Xuzhou Guanyin Airport", "latitude": "34.16", "longitude": "117.11", "elevation": "43", "gmtOffset": "8"}, {"iatacode": "XNN", "city": "cty-China-59", "country": "CN", "name": "Xining Caojiabao Airport", "latitude": "36.5275", "longitude": "102.043", "elevation": "2170", "gmtOffset": "8"}, {"iatacode": "XIY", "city": "cty-China-12", "country": "CN", "name": "Xianyang", "latitude": "34.447119", "longitude": "108.751592", "elevation": "479", "gmtOffset": "8"}, {"iatacode": "HFE", "city": "cty-China-42", "country": "CN", "name": "Luogang", "latitude": "31.780019", "longitude": "117.298436", "elevation": "33", "gmtOffset": "8"}, {"iatacode": "NNY", "city": "cty-China-152", "country": "CN", "name": "Nanyang Airport", "latitude": "32.9808", "longitude": "112.615", "gmtOffset": "8"}, {"iatacode": "NZH", "city": "cty-China-302", "country": "CN", "name": "Manzhouli", "latitude": "49.57", "longitude": "117.329444", "gmtOffset": "8"}, {"iatacode": "YUS", "city": "cty-China-281", "country": "CN", "name": "Yushu Batang", "latitude": "32.825", "longitude": "97.125", "elevation": "3963", "gmtOffset": "8"}, {"iatacode": "AQG", "city": "cty-China-147", "country": "CN", "name": "Anqing Airport", "latitude": "30.5822", "longitude": "117.0502", "gmtOffset": "8"}, {"iatacode": "CGD", "city": "cty-China-124", "country": "CN", "name": "Changde Airport", "latitude": "28.9189", "longitude": "111.64", "gmtOffset": "8"}, {"iatacode": "KHG", "city": "cty-China-220", "country": "CN", "name": "Kashi", "latitude": "39.542922", "longitude": "76.019956", "elevation": "1381", "gmtOffset": "8"}, {"iatacode": "KOW", "city": "cty-China-164", "country": "CN", "name": "Ganzhou Airport", "latitude": "25.8258", "longitude": "114.912", "gmtOffset": "8"}, {"iatacode": "AKU", "city": "cty-China-230", "country": "CN", "name": "Aksu Airport", "latitude": "41.2625", "longitude": "80.2917", "elevation": "1163", "gmtOffset": "8"}, {"iatacode": "KRL", "city": "cty-China-239", "country": "CN", "name": "Korla Airport", "latitude": "41.6978", "longitude": "86.1289", "elevation": "927", "gmtOffset": "8"}, {"iatacode": "LYA", "city": "cty-China-36", "country": "CN", "name": "Luoyang Airport", "latitude": "34.41", "longitude": "112.28", "elevation": "64", "gmtOffset": "8"}, {"iatacode": "LYG", "city": "cty-China-103", "country": "CN", "name": "Lianyungang Airport", "latitude": "34.55", "longitude": "119.25", "gmtOffset": "8"}, {"iatacode": "LZH", "city": "cty-China-55", "country": "CN", "name": "Bailian Airport", "latitude": "24.2075", "longitude": "109.391", "elevation": "90", "gmtOffset": "8"}, {"iatacode": "WEF", "city": "cty-China-75", "country": "CN", "name": "Weifang Airport", "latitude": "36.6467", "longitude": "119.119", "gmtOffset": "8"}, {"iatacode": "CHG", "city": "cty-China-163", "country": "CN", "name": "Chaoyang Airport", "latitude": "41.5381", "longitude": "120.435", "elevation": "173", "gmtOffset": "8"}, {"iatacode": "CIH", "city": "cty-China-115", "country": "CN", "name": "Changzhi Airport", "latitude": "36.2475", "longitude": "113.126", "gmtOffset": "8"}, {"iatacode": "CIF", "city": "cty-China-107", "country": "CN", "name": "Chifeng Airport", "latitude": "42.235", "longitude": "118.908", "gmtOffset": "8"}, {"iatacode": "DOY", "city": "cty-China-128", "country": "CN", "name": "Dongying Airport", "latitude": "37.2716", "longitude": "118.2819", "elevation": "26", "gmtOffset": "8"}, {"iatacode": "NAO", "city": "cty-China-209", "country": "CN", "name": "Nanchong Airport", "latitude": "30.754", "longitude": "106.062", "gmtOffset": "8"}, {"iatacode": "JIU", "city": "cty-China-127", "country": "CN", "name": "Jiujiang Lushan Airport", "latitude": "29.733", "longitude": "115.983", "gmtOffset": "8"}, {"iatacode": "JDZ", "city": "cty-China-131", "country": "CN", "name": "Jingdezhen Airport", "latitude": "29.3386", "longitude": "117.176", "elevation": "34", "gmtOffset": "8"}, {"iatacode": "ZHA", "city": "cty-China-86", "country": "CN", "name": "Zhanjiang Airport", "latitude": "21.2144", "longitude": "110.358", "elevation": "38", "gmtOffset": "8"}, {"iatacode": "WUA", "city": "cty-China-138", "country": "CN", "name": "Wuhai", "latitude": "39.794444", "longitude": "106.799444", "gmtOffset": "8"}, {"iatacode": "GYS", "city": "cty-China-205", "country": "CN", "name": "Guangyuan Airport", "latitude": "32.3911", "longitude": "105.702", "gmtOffset": "8"}, {"iatacode": "HSN", "city": "cty-China-242", "country": "CN", "name": "Zhoushan Airport", "latitude": "29.9342", "longitude": "122.362", "elevation": "9", "gmtOffset": "8", "located_on": {"island": "island-Zhoushan"}}, {"iatacode": "JNZ", "city": "cty-China-58", "country": "CN", "name": "Jinzhou Airport", "latitude": "41.1014", "longitude": "121.062", "gmtOffset": "8"}, {"iatacode": "JNG", "city": "cty-China-137", "country": "CN", "name": "Jining Airport", "latitude": "35.417", "longitude": "116.533", "elevation": "470", "gmtOffset": "8"}, {"iatacode": "JUZ", "city": "cty-China-313", "country": "CN", "name": "Quzhou Airport", "latitude": "28.9658", "longitude": "118.899", "gmtOffset": "8"}, {"iatacode": "HLH", "city": "cty-China-238", "country": "CN", "name": "Ulanhot Airport", "latitude": "46.083", "longitude": "122.017", "gmtOffset": "8"}, {"iatacode": "HMI", "city": "cty-China-235", "country": "CN", "name": "Hami Airport", "latitude": "42.8414", "longitude": "93.6692", "elevation": "824", "gmtOffset": "8"}, {"iatacode": "YIN", "city": "cty-China-216", "country": "CN", "name": "Yining Airport", "latitude": "43.9558", "longitude": "81.3303", "elevation": "666", "gmtOffset": "8"}, {"iatacode": "KWL", "city": "cty-China-96", "country": "CN", "name": "Liangjiang", "latitude": "25.218106", "longitude": "110.039197", "elevation": "174", "gmtOffset": "8"}, {"iatacode": "CZX", "city": "cty-China-60", "country": "CN", "name": "Changzhou", "latitude": "31.941667", "longitude": "119.711667", "elevation": "12", "gmtOffset": "8"}, {"iatacode": "SWA", "city": "cty-China-56", "country": "CN", "name": "Jieyang Chaoshan International Airport", "latitude": "23.55", "longitude": "116.5", "gmtOffset": "8"}, {"iatacode": "DAT", "city": "cty-China-39", "country": "CN", "name": "Datong Airport", "latitude": "40.0603", "longitude": "113.482", "elevation": "1049", "gmtOffset": "8"}, {"iatacode": "TAO", "city": "cty-China-18", "country": "CN", "name": "Liuting", "latitude": "36.266108", "longitude": "120.374436", "elevation": "10", "gmtOffset": "8"}, {"iatacode": "DDG", "city": "cty-China-62", "country": "CN", "name": "Dandong", "latitude": "40.0255", "longitude": "124.2866", "elevation": "9", "gmtOffset": "8"}, {"iatacode": "SHE", "city": "cty-China-6", "country": "CN", "name": "Shenyang Taoxian International Airport", "latitude": "41.3824", "longitude": "123.2901", "elevation": "60", "gmtOffset": "8"}, {"iatacode": "SHA", "city": "cty-China-Shanghai", "country": "CN", "name": "Hongqiao Intl", "latitude": "31.197875", "longitude": "121.336319", "elevation": "3", "gmtOffset": "8"}, {"iatacode": "XCH", "city": "city-The-Settlement-XMAS-XMAS", "country": "XMAS", "name": "Christmas Island", "latitude": "-10.450556", "longitude": "105.690278", "elevation": "279", "gmtOffset": "7", "located_on": {"island": "island-ChristmasIsland"}}, {"iatacode": "CCK", "city": "city-West-Island-COCO-COCO", "country": "COCO", "name": "Cocos Keeling Island Airport", "latitude": "-12.1883", "longitude": "96.8339", "elevation": "3", "gmtOffset": "6.5", "located_on": {"island": "island-PulauPanjang"}}, {"iatacode": "BOG", "city": "cty-Colombia-Bogota", "country": "CO", "name": "Eldorado Intl", "latitude": "4.701594", "longitude": "-74.146947", "elevation": "2549", "gmtOffset": "-5"}, {"iatacode": "IBE", "city": "cty-Colombia-10", "country": "CO", "name": "Perales", "latitude": "4.421608", "longitude": "-75.1333", "elevation": "914", "gmtOffset": "-5"}, {"iatacode": "FLA", "city": "cty-Colombia-36", "country": "CO", "name": "Gustavo Artunduaga Paredes", "latitude": "1.589189", "longitude": "-75.564372", "elevation": "245", "gmtOffset": "-5"}, {"iatacode": "AXM", "city": "cty-Colombia-25", "country": "CO", "name": "El Eden", "latitude": "4.452775", "longitude": "-75.766447", "elevation": "1216", "gmtOffset": "-5"}, {"iatacode": "MZL", "city": "cty-Colombia-11", "country": "CO", "name": "La Nubia", "latitude": "5.029597", "longitude": "-75.464708", "elevation": "2095", "gmtOffset": "-5"}, {"iatacode": "EJA", "city": "cty-Colombia-26", "country": "CO", "name": "Yariguies", "latitude": "7.024331", "longitude": "-73.8068", "elevation": "126", "gmtOffset": "-5"}, {"iatacode": "TCO", "city": "cty-Colombia-38", "country": "CO", "name": "La Florida", "latitude": "1.814417", "longitude": "-78.749228", "elevation": "2", "gmtOffset": "-5"}, {"iatacode": "CLO", "city": "cty-Colombia-Cali", "country": "CO", "name": "Alfonso Bonilla Aragon Intl", "latitude": "3.543222", "longitude": "-76.381583", "elevation": "964", "gmtOffset": "-5"}, {"iatacode": "CTG", "city": "cty-Colombia-6", "country": "CO", "name": "Rafael Nunez", "latitude": "10.442381", "longitude": "-75.512961", "elevation": "1", "gmtOffset": "-5"}, {"iatacode": "SMR", "city": "cty-Colombia-13", "country": "CO", "name": "Simon Bolivar", "latitude": "11.11965", "longitude": "-74.230647", "elevation": "7", "gmtOffset": "-5"}, {"iatacode": "BAQ", "city": "cty-Colombia-5", "country": "CO", "name": "Ernesto Cortissoz", "latitude": "10.889589", "longitude": "-74.780819", "elevation": "30", "gmtOffset": "-5"}, {"iatacode": "PEI", "city": "cty-Colombia-8", "country": "CO", "name": "Matecana", "latitude": "4.812675", "longitude": "-75.739519", "elevation": "1346", "gmtOffset": "-5"}, {"iatacode": "CUC", "city": "cty-Colombia-7", "country": "CO", "name": "Camilo Daza", "latitude": "7.927567", "longitude": "-72.511547", "elevation": "334", "gmtOffset": "-5"}, {"iatacode": "BGA", "city": "cty-Colombia-9", "country": "CO", "name": "Palonegro", "latitude": "7.1265", "longitude": "-73.184778", "elevation": "1188", "gmtOffset": "-5"}, {"iatacode": "ADZ", "city": "cty-Colombia-San-Andres", "country": "CO", "name": "Gustavo Rojas Pinilla", "latitude": "12.583594", "longitude": "-81.711192", "elevation": "6", "gmtOffset": "-5", "located_on": {"island": "island-SanAndres"}}, {"iatacode": "EOH", "city": "cty-Colombia-Medellin", "country": "CO", "name": "Olaya Herrera", "latitude": "6.219958", "longitude": "-75.590519", "elevation": "1506", "gmtOffset": "-5"}, {"iatacode": "HAH", "city": "cty-Comoros-Moroni", "country": "COM", "name": "Prince Said Ibrahim", "latitude": "-11.533661", "longitude": "43.27185", "elevation": "28", "gmtOffset": "3", "located_on": {"island": "island-Gr_Komoro"}}, {"iatacode": "PNR", "city": "cty-RCB-12", "country": "RCB", "name": "Pointe Noire", "latitude": "-4.816028", "longitude": "11.886597", "elevation": "17", "gmtOffset": "1"}, {"iatacode": "BZV", "city": "cty-RCB-11", "country": "RCB", "name": "Maya Maya", "latitude": "-4.2517", "longitude": "15.253031", "elevation": "320", "gmtOffset": "1"}, {"iatacode": "CUR", "city": "city-Willemstad-CUR", "country": "CUR", "name": "Hato", "latitude": "12.188853", "longitude": "-68.959803", "elevation": "9", "gmtOffset": "-4", "located_on": {"island": "island-Curacao"}}, {"iatacode": "FIH", "city": "cty-zre-1", "country": "ZRE", "name": "Ndjili Intl", "latitude": "-4.38575", "longitude": "15.444569", "elevation": "313", "gmtOffset": "1"}, {"iatacode": "MJM", "city": "cty-zre-11", "country": "ZRE", "name": "Mbuji Mayi", "latitude": "-6.121236", "longitude": "23.569008", "elevation": "677", "gmtOffset": "2"}, {"iatacode": "FBM", "city": "cty-zre-32", "country": "ZRE", "name": "Lubumbashi Intl", "latitude": "-11.591333", "longitude": "27.530889", "elevation": "1309", "gmtOffset": "2"}, {"iatacode": "RAR", "city": "city-Avarua-COOK-COOK", "country": "COOK", "name": "Rarotonga Intl", "latitude": "-21.202739", "longitude": "-159.805556", "elevation": "6", "gmtOffset": "-10", "located_on": {"island": "island-Rarotonga"}}, {"iatacode": "SYQ", "city": "cty-Costa-Rica-2", "country": "CR", "name": "Tobias Bolanos International Airport", "latitude": "9.957053", "longitude": "-84.139797", "elevation": "1002", "gmtOffset": "-6"}, {"iatacode": "LIR", "city": "cty-Costa-Rica-8", "country": "CR", "name": "Daniel Oduber Quiros Intl", "latitude": "10.593289", "longitude": "-85.544408", "elevation": "82", "gmtOffset": "-6"}, {"iatacode": "SJO", "city": "cty-Costa-Rica-2", "country": "CR", "name": "Juan Santamaria Intl", "latitude": "9.993861", "longitude": "-84.208806", "elevation": "921", "gmtOffset": "-6"}, {"iatacode": "ABJ", "city": "cty-CI-2", "country": "CI", "name": "Abidjan Felix Houphouet Boigny Intl", "latitude": "5.261386", "longitude": "-3.926294", "elevation": "6", "gmtOffset": "0"}, {"iatacode": "SPU", "city": "cty-Croatia-2", "country": "HR", "name": "Split", "latitude": "43.538944", "longitude": "16.297964", "elevation": "24", "gmtOffset": "1"}, {"iatacode": "ZAG", "city": "cty-Croatia-1", "country": "HR", "name": "Zagreb", "latitude": "45.742931", "longitude": "16.068778", "elevation": "108", "gmtOffset": "1"}, {"iatacode": "RJK", "city": "cty-Croatia-3", "country": "HR", "name": "Rijeka", "latitude": "45.216889", "longitude": "14.570267", "elevation": "85", "gmtOffset": "1"}, {"iatacode": "ZAD", "city": "cty-Croatia-5", "country": "HR", "name": "Zadar", "latitude": "44.108269", "longitude": "15.346697", "elevation": "88", "gmtOffset": "1"}, {"iatacode": "SCU", "city": "cty-Cuba-3", "country": "C", "name": "Antonio Maceo Intl", "latitude": "19.969769", "longitude": "-75.835414", "elevation": "76", "gmtOffset": "-5", "located_on": {"island": "island-Cuba"}}, {"iatacode": "CMW", "city": "cty-Cuba-4", "country": "C", "name": "Ignacio Agramonte Intl", "latitude": "21.420428", "longitude": "-77.847433", "elevation": "126", "gmtOffset": "-5", "located_on": {"island": "island-Cuba"}}, {"iatacode": "HOG", "city": "cty-Cuba-5", "country": "C", "name": "Frank Pais Intl", "latitude": "20.785589", "longitude": "-76.315108", "elevation": "110", "gmtOffset": "-5", "located_on": {"island": "island-Cuba"}}, {"iatacode": "GER", "city": "cty-Cuba-Nueva-Gerona", "country": "C", "name": "Rafael Cabrera", "latitude": "21.834689", "longitude": "-82.783819", "elevation": "24", "gmtOffset": "-5", "located_on": {"island": "island-Cuba"}}, {"iatacode": "HAV", "city": "cty-Cuba-Havana", "country": "C", "name": "Jose Marti Intl", "latitude": "22.989153", "longitude": "-82.409086", "elevation": "64", "gmtOffset": "-5", "located_on": {"island": "island-Cuba"}}, {"iatacode": "LCA", "city": "cty-Cyprus-Larnaca", "country": "CY", "name": "Larnaca", "latitude": "34.875117", "longitude": "33.62485", "elevation": "2", "gmtOffset": "2", "located_on": {"island": "island-Cyprus"}}, {"iatacode": "ECN", "city": "cty-Cyprus-Nicosia", "country": "CY", "name": "Ercan International Airport", "latitude": "35.1547", "longitude": "33.4961", "elevation": "123", "gmtOffset": "2", "located_on": {"island": "island-Cyprus"}}, {"iatacode": "KLV", "city": "cty-Czech-Karlovy", "country": "CZ", "name": "Karlovy Vary", "latitude": "50.202978", "longitude": "12.914983", "elevation": "606", "gmtOffset": "1"}, {"iatacode": "PED", "city": "cty-Czech-10", "country": "CZ", "name": "Pardubice", "latitude": "50.013419", "longitude": "15.738647", "elevation": "226", "gmtOffset": "1"}, {"iatacode": "PRG", "city": "cty-Czech-2", "country": "CZ", "name": "Vaclav Havel Airport", "latitude": "50.100833", "longitude": "14.26", "elevation": "380", "gmtOffset": "1"}, {"iatacode": "OSR", "city": "cty-Czech-4", "country": "CZ", "name": "Mosnov", "latitude": "49.696292", "longitude": "18.111053", "elevation": "257", "gmtOffset": "1"}, {"iatacode": "BRQ", "city": "cty-Czech-3", "country": "CZ", "name": "Brno-Tu\u0159any", "latitude": "49.1514", "longitude": "16.6944", "elevation": "235", "gmtOffset": "1"}, {"iatacode": "CPH", "city": "cty-Denmark-Copenhagen", "country": "DK", "name": "Kastrup", "latitude": "55.617917", "longitude": "12.655972", "elevation": "5", "gmtOffset": "1", "located_on": {"island": "island-Seeland"}}, {"iatacode": "AAL", "city": "stadt-Aalborg-DK-DK", "country": "DK", "name": "Aalborg", "latitude": "57.092789", "longitude": "9.849164", "elevation": "3", "gmtOffset": "1"}, {"iatacode": "AAR", "city": "stadt-Aarhus-DK-DK", "country": "DK", "name": "Aarhus", "latitude": "56.300017", "longitude": "10.619008", "elevation": "25", "gmtOffset": "1"}, {"iatacode": "RNN", "city": "stadt-Ronne-DK-DK", "country": "DK", "name": "Bornholm Ronne", "latitude": "55.063267", "longitude": "14.759558", "elevation": "16", "gmtOffset": "1", "located_on": {"island": "island-Bornholm"}}, {"iatacode": "EBJ", "city": "stadt-Esbjerg-DK-DK", "country": "DK", "name": "Esbjerg", "latitude": "55.525942", "longitude": "8.553403", "elevation": "30", "gmtOffset": "1"}, {"iatacode": "JIB", "city": "cty-Djibouti-Djibouti", "country": "DJI", "name": "Ambouli International Airport", "latitude": "11.5472", "longitude": "43.1594", "elevation": "15", "gmtOffset": "3"}, {"iatacode": "DOM", "city": "cty-Dominica-Roseau", "country": "WD", "name": "Melville Hall", "latitude": "15.547028", "longitude": "-61.3", "elevation": "22", "gmtOffset": "-4", "located_on": {"island": "island-Dominica"}}, {"iatacode": "SDQ", "city": "cty-Dominican-Republic-Santo-Domingo", "country": "DOM", "name": "Las Americas Intl", "latitude": "18.429664", "longitude": "-69.668925", "elevation": "18", "gmtOffset": "-4", "located_on": {"island": "island-Hispaniola"}}, {"iatacode": "STI", "city": "cty-Dominican-Republic-Santiago", "country": "DOM", "name": "Cibao Intl", "latitude": "19.406092", "longitude": "-70.604689", "elevation": "172", "gmtOffset": "-4", "located_on": {"island": "island-Hispaniola"}}, {"iatacode": "DIL", "city": "city-Dili-TL-TL", "country": "TL", "name": "Presidente Nicolau Lobato Intl", "latitude": "-8.546553", "longitude": "125.524719", "elevation": "8", "gmtOffset": "8", "located_on": {"island": "island-Timor"}}, {"iatacode": "GPS", "country": "EC", "name": "Seymour", "latitude": "-0.453758", "longitude": "-90.265914", "elevation": "63", "gmtOffset": "-6", "located_on": {"island": "island-Isabela"}}, {"iatacode": "GYE", "city": "stadt-Guayaquil", "country": "EC", "name": "Jose Joaquin De Olmedo Intl", "latitude": "-2.157419", "longitude": "-79.883558", "elevation": "6", "gmtOffset": "-5"}, {"iatacode": "UIO", "city": "cty-Ecuador-Quito", "country": "EC", "name": "Mariscal Sucre Intl", "latitude": "-0.141144", "longitude": "-78.488214", "elevation": "2813", "gmtOffset": "-5"}, {"iatacode": "CUE", "city": "city-EC-Cuenca", "country": "EC", "name": "Mariscal Lamar", "latitude": "-2.889467", "longitude": "-78.984397", "elevation": "2532", "gmtOffset": "-5"}, {"iatacode": "HRG", "city": "cty-Egypt-Hurghada", "country": "ET", "name": "Hurghada Intl", "latitude": "27.178317", "longitude": "33.799436", "elevation": "16", "gmtOffset": "2"}, {"iatacode": "ASW", "city": "cty-Egypt-18", "country": "ET", "name": "Aswan Intl", "latitude": "23.964356", "longitude": "32.819975", "elevation": "202", "gmtOffset": "2"}, {"iatacode": "ATZ", "city": "cty-Egypt-11", "country": "ET", "name": "Asyut International Airport", "latitude": "27.046508", "longitude": "31.011983", "elevation": "235", "gmtOffset": "2"}, {"iatacode": "HBE", "city": "cty-Egypt-El-Iskandariya", "country": "ET", "name": "Borg El Arab Intl", "latitude": "30.917669", "longitude": "29.696408", "elevation": "54", "gmtOffset": "2"}, {"iatacode": "CAI", "city": "cty-Egypt-Cairo", "country": "ET", "name": "Cairo Intl", "latitude": "30.121944", "longitude": "31.405556", "elevation": "116", "gmtOffset": "2"}, {"iatacode": "LXR", "city": "cty-Egypt-21", "country": "ET", "name": "Luxor Intl", "latitude": "25.671028", "longitude": "32.706583", "elevation": "90", "gmtOffset": "2"}, {"iatacode": "ALY", "city": "cty-Egypt-El-Iskandariya", "country": "ET", "name": "Alexandria Intl", "latitude": "31.183903", "longitude": "29.948889", "elevation": "-2", "gmtOffset": "2"}, {"iatacode": "SAL", "city": "cty-El-Salvador-2", "country": "ES", "name": "El Salvador Intl", "latitude": "13.440947", "longitude": "-89.055728", "elevation": "31", "gmtOffset": "-6"}, {"iatacode": "SSG", "city": "cty-Equatorial-Guinea-Malabo", "country": "GQ", "name": "Malabo", "latitude": "3.755267", "longitude": "8.708717", "elevation": "23", "gmtOffset": "1", "located_on": {"island": "island-Bioko"}}, {"iatacode": "BSG", "city": "cty-Equatorial-Guinea-Bata", "country": "GQ", "name": "Bata", "latitude": "1.9056", "longitude": "9.8056", "elevation": "11", "gmtOffset": "1"}, {"iatacode": "ASM", "city": "cty-Eritrea-Asmara", "country": "ER", "name": "Asmara Intl", "latitude": "15.291853", "longitude": "38.910667", "elevation": "2336", "gmtOffset": "3"}, {"iatacode": "MSW", "city": "cty-Eritrea-Massaua", "country": "ER", "name": "Massaua", "latitude": "15.68", "longitude": "39.28", "elevation": "59", "gmtOffset": "3"}, {"iatacode": "TLL", "city": "cty-Estonia-Tallinn", "country": "EW", "name": "Tallinn-Ulemiste International", "latitude": "59.413317", "longitude": "24.832844", "elevation": "40", "gmtOffset": "2"}, {"iatacode": "GDQ", "city": "cty-ETH-12", "country": "ETH", "name": "Gondar", "latitude": "12.5199", "longitude": "37.434047", "elevation": "1994", "gmtOffset": "3"}, {"iatacode": "DIR", "city": "cty-ETH-5", "country": "ETH", "name": "Dire Dawa Intl", "latitude": "9.6247", "longitude": "41.854203", "elevation": "1167", "gmtOffset": "3"}, {"iatacode": "ADD", "city": "cty-ETH-1", "country": "ETH", "name": "Bole Intl", "latitude": "8.977889", "longitude": "38.799319", "elevation": "2334", "gmtOffset": "3"}, {"iatacode": "GMB", "city": "cty-ETH-6", "country": "ETH", "name": "Gambella", "latitude": "8.128764", "longitude": "34.563131", "elevation": "540", "gmtOffset": "3"}, {"iatacode": "PSY", "city": "city-Stanley-FALK-FALK", "country": "FALK", "name": "Port Stanley", "latitude": "-51.6857", "longitude": "-57.7776", "elevation": "23", "gmtOffset": "-3", "located_on": {"island": "island-EastFalkland"}}, {"iatacode": "FAE", "city": "cty-Faroe-Islands-Torshavn", "country": "FARX", "name": "Vagar", "latitude": "62.063628", "longitude": "-7.277219", "elevation": "85", "gmtOffset": "0", "located_on": {"island": "island-Streymoy"}}, {"iatacode": "SUV", "city": "cty-Fiji-Suva", "country": "FJI", "name": "Nausori Intl", "latitude": "-18.043267", "longitude": "178.559228", "elevation": "5", "gmtOffset": "12", "located_on": {"island": "island-VitiLevu"}}, {"iatacode": "MHQ", "city": "city-Mariehamn-SF", "country": "SF", "name": "Mariehamn", "latitude": "60.122203", "longitude": "19.898156", "elevation": "5", "gmtOffset": "2"}, {"iatacode": "OUL", "city": "city-Oulu-SF", "country": "SF", "name": "Oulu", "latitude": "64.930061", "longitude": "25.354564", "elevation": "14", "gmtOffset": "2"}, {"iatacode": "HEL", "city": "cty-Finland-Helsinki", "country": "SF", "name": "Helsinki Vantaa", "latitude": "60.317222", "longitude": "24.963333", "elevation": "55", "gmtOffset": "2"}, {"iatacode": "POR", "city": "city-Pori-SF", "country": "SF", "name": "Pori", "latitude": "61.461686", "longitude": "21.799983", "elevation": "13", "gmtOffset": "2"}, {"iatacode": "JOE", "city": "city-Joensuu-SF", "country": "SF", "name": "Joensuu", "latitude": "62.662906", "longitude": "29.60755", "elevation": "121", "gmtOffset": "2"}, {"iatacode": "RVN", "city": "city-Rovaniemi-SF", "country": "SF", "name": "Rovaniemi", "latitude": "66.564822", "longitude": "25.830411", "elevation": "196", "gmtOffset": "2"}, {"iatacode": "JYV", "city": "city-Jyvaeskylae-SF", "country": "SF", "name": "Jyv\u00e4skyl\u00e4", "latitude": "62.399453", "longitude": "25.678253", "elevation": "140", "gmtOffset": "2"}, {"iatacode": "KUO", "city": "city-Kuopio-SF", "country": "SF", "name": "Kuopio", "latitude": "63.00715", "longitude": "27.797756", "elevation": "98", "gmtOffset": "2"}, {"iatacode": "LPP", "city": "city-Lappeenranta-SF", "country": "SF", "name": "Lappeenranta", "latitude": "61.044553", "longitude": "28.144397", "elevation": "106", "gmtOffset": "2"}, {"iatacode": "TMP", "city": "city-Tampere-SF", "country": "SF", "name": "Tampere Pirkkala", "latitude": "61.414147", "longitude": "23.604392", "elevation": "119", "gmtOffset": "2"}, {"iatacode": "TKU", "city": "city-Turku-SF", "country": "SF", "name": "Turku", "latitude": "60.514142", "longitude": "22.262808", "elevation": "49", "gmtOffset": "2"}, {"iatacode": "VAA", "city": "city-Vaasa-SF", "country": "SF", "name": "Vaasa", "latitude": "63.05065", "longitude": "21.762175", "elevation": "6", "gmtOffset": "2"}, {"iatacode": "MLH", "city": "cty-France-32", "country": "F", "name": "Basel Mulhouse", "latitude": "47.589583", "longitude": "7.529914", "elevation": "270", "gmtOffset": "1"}, {"iatacode": "MRS", "city": "cty-France-3", "country": "F", "name": "Provence", "latitude": "43.435555", "longitude": "5.213611", "elevation": "23", "gmtOffset": "1"}, {"iatacode": "MPL", "city": "cty-France-10", "country": "F", "name": "Mediterranee", "latitude": "43.576194", "longitude": "3.963014", "elevation": "5", "gmtOffset": "1"}, {"iatacode": "CFR", "city": "cty-France-31", "country": "F", "name": "Carpiquet", "latitude": "49.173333", "longitude": "-0.45", "elevation": "78", "gmtOffset": "1"}, {"iatacode": "ANE", "city": "cty-France-21", "country": "F", "name": "Angers-Loire Airport", "latitude": "47.5603", "longitude": "-0.312222", "elevation": "59", "gmtOffset": "1"}, {"iatacode": "ETZ", "city": "cty-France-28", "country": "F", "name": "Metz Nancy Lorraine", "latitude": "48.982142", "longitude": "6.251319", "elevation": "265", "gmtOffset": "1"}, {"iatacode": "ORY", "city": "cty-France-Paris", "country": "F", "name": "Orly", "latitude": "48.725278", "longitude": "2.359444", "elevation": "89", "gmtOffset": "1"}, {"iatacode": "FNI", "city": "cty-France-26", "country": "F", "name": "Garons", "latitude": "43.757444", "longitude": "4.416347", "elevation": "94", "gmtOffset": "1"}, {"iatacode": "PGF", "city": "cty-France-33", "country": "F", "name": "Rivesaltes", "latitude": "42.740442", "longitude": "2.870667", "elevation": "44", "gmtOffset": "1"}, {"iatacode": "RNS", "city": "cty-France-12", "country": "F", "name": "St Jacques", "latitude": "48.069508", "longitude": "-1.734794", "elevation": "38", "gmtOffset": "1"}, {"iatacode": "LYS", "city": "cty-France-Lyon", "country": "F", "name": "Saint Exupery", "latitude": "45.726387", "longitude": "5.090833", "elevation": "250", "gmtOffset": "1"}, {"iatacode": "BOD", "city": "cty-France-9", "country": "F", "name": "Merignac", "latitude": "44.828335", "longitude": "-0.715556", "elevation": "49", "gmtOffset": "1"}, {"iatacode": "SXB", "city": "cty-France-Strasbourg", "country": "F", "name": "Entzheim", "latitude": "48.538319", "longitude": "7.628233", "elevation": "154", "gmtOffset": "1"}, {"iatacode": "CFE", "city": "cty-France-22", "country": "F", "name": "Auvergne", "latitude": "45.786661", "longitude": "3.169169", "elevation": "332", "gmtOffset": "1"}, {"iatacode": "LIG", "city": "cty-France-23", "country": "F", "name": "Bellegarde", "latitude": "45.862778", "longitude": "1.179444", "elevation": "396", "gmtOffset": "1"}, {"iatacode": "LIL", "city": "cty-France-15", "country": "F", "name": "Lesquin", "latitude": "50.561942", "longitude": "3.089444", "elevation": "48", "gmtOffset": "1"}, {"iatacode": "CDG", "city": "cty-France-Paris", "country": "F", "name": "Charles De Gaulle", "latitude": "49.012779", "longitude": "2.55", "elevation": "120", "gmtOffset": "1"}, {"iatacode": "AJA", "city": "cty-France-Ajaccio", "country": "F", "name": "Campo Dell Oro", "latitude": "41.923637", "longitude": "8.802917", "elevation": "5", "gmtOffset": "1", "located_on": {"island": "island-Corse"}}, {"iatacode": "TUF", "city": "cty-France-25", "country": "F", "name": "Val De Loire", "latitude": "47.432222", "longitude": ".727606", "elevation": "109", "gmtOffset": "1"}, {"iatacode": "TLS", "city": "cty-France-5", "country": "F", "name": "Blagnac", "latitude": "43.629075", "longitude": "1.363819", "elevation": "152", "gmtOffset": "1"}, {"iatacode": "BES", "city": "cty-France-18", "country": "F", "name": "Guipavas", "latitude": "48.447911", "longitude": "-4.418539", "elevation": "99", "gmtOffset": "1"}, {"iatacode": "NCE", "city": "cty-France-Nice", "country": "F", "name": "Cote d'Azur", "latitude": "43.658411", "longitude": "7.215872", "elevation": "4", "gmtOffset": "1"}, {"iatacode": "NTE", "city": "cty-France-Nantes", "country": "F", "name": "Nantes Atlantique", "latitude": "47.153189", "longitude": "-1.610725", "elevation": "27", "gmtOffset": "1"}, {"iatacode": "SBH", "city": "city-Gustavia-SBAR", "country": "SBAR", "name": "Saint Barthelemy", "latitude": "17.9023", "longitude": "-62.8324", "elevation": "15", "gmtOffset": "-4", "located_on": {"island": "island-StBarthelemy"}}, {"iatacode": "CAY", "city": "cty-French-Guiana-Cayenne", "country": "FGU", "name": "Rochambeau", "latitude": "4.819808", "longitude": "-52.360447", "elevation": "8", "gmtOffset": "-3"}, {"iatacode": "PPT", "city": "city-Papeete-FPOL-FPOL", "country": "FPOL", "name": "Faa'a International", "latitude": "-17.556667", "longitude": "-149.611389", "elevation": "2", "gmtOffset": "-10", "located_on": {"island": "island-Tahiti"}}, {"iatacode": "LBV", "city": "cty-Gabon-Libreville", "country": "G", "name": "Leon M Ba", "latitude": ".4586", "longitude": "9.412283", "elevation": "12", "gmtOffset": "1"}, {"iatacode": "BJL", "city": "cty-Gambia-Banjul", "country": "WAG", "name": "Banjul Intl", "latitude": "13.337961", "longitude": "-16.652206", "elevation": "29", "gmtOffset": "0"}, {"iatacode": "TBS", "city": "cty-Georgia-1", "country": "GE", "name": "Tbilisi", "latitude": "41.669167", "longitude": "44.954722", "elevation": "495", "gmtOffset": "4"}, {"iatacode": "BUS", "city": "cty-Georgia-3", "country": "GE", "name": "Batumi", "latitude": "41.610278", "longitude": "41.599694", "elevation": "32", "gmtOffset": "4"}, {"iatacode": "KUT", "city": "cty-Georgia-2", "country": "GE", "name": "Kopitnari", "latitude": "42.176653", "longitude": "42.482583", "elevation": "68", "gmtOffset": "4"}, {"iatacode": "HAJ", "city": "cty-Germany-Hannover", "country": "D", "name": "Hannover", "latitude": "52.461056", "longitude": "9.685078", "elevation": "56", "gmtOffset": "1"}, {"iatacode": "HAM", "city": "cty-Germany-Hamburg", "country": "D", "name": "Hamburg", "latitude": "53.630389", "longitude": "9.988228", "elevation": "16", "gmtOffset": "1"}, {"iatacode": "PAD", "city": "cty-Germany-56", "country": "D", "name": "Paderborn Lippstadt", "latitude": "51.614089", "longitude": "8.616317", "elevation": "213", "gmtOffset": "1"}, {"iatacode": "GWT", "country": "D", "name": "Westerland Sylt", "latitude": "54.91325", "longitude": "8.340472", "elevation": "16", "gmtOffset": "1", "located_on": {"island": "island-Sylt"}}, {"iatacode": "SCN", "city": "cty-Germany-42", "country": "D", "name": "Saarbr\u00fccken", "latitude": "49.214553", "longitude": "7.109508", "elevation": "323", "gmtOffset": "1"}, {"iatacode": "TXL", "city": "cty-Germany-Berlin", "country": "D", "name": "Tegel", "latitude": "52.559686", "longitude": "13.287711", "elevation": "37", "gmtOffset": "1"}, {"iatacode": "BRE", "city": "cty-Germany-11", "country": "D", "name": "Neuenland", "latitude": "53.0475", "longitude": "8.786667", "elevation": "4", "gmtOffset": "1"}, {"iatacode": "SXF", "city": "cty-Germany-Berlin", "country": "D", "name": "Sch\u00f6nefeld", "latitude": "52.380001", "longitude": "13.5225", "elevation": "48", "gmtOffset": "1"}, {"iatacode": "STR", "city": "cty-Germany-9", "country": "D", "name": "Stuttgart", "latitude": "48.689878", "longitude": "9.221964", "elevation": "389", "gmtOffset": "1"}, {"iatacode": "LBC", "city": "cty-Germany-37", "country": "D", "name": "L\u00fcbeck", "latitude": "53.805367", "longitude": "10.719222", "elevation": "16", "gmtOffset": "1"}, {"iatacode": "LEJ", "city": "cty-Germany-15", "country": "D", "name": "Leipzig Halle", "latitude": "51.432447", "longitude": "12.241633", "elevation": "142", "gmtOffset": "1"}, {"iatacode": "CGN", "city": "cty-Germany-5", "country": "D", "name": "K\u00f6ln Bonn", "latitude": "50.865917", "longitude": "7.142744", "elevation": "92", "gmtOffset": "1"}, {"iatacode": "HHN", "city": "cty-Germany-6", "country": "D", "name": "Frankfurt Hahn", "latitude": "49.948672", "longitude": "7.263892", "elevation": "503", "gmtOffset": "1"}, {"iatacode": "FRA", "city": "cty-Germany-6", "country": "D", "name": "Frankfurt Main", "latitude": "50.026421", "longitude": "8.543125", "elevation": "111", "gmtOffset": "1"}, {"iatacode": "FMO", "city": "cty-Germany-29", "country": "D", "name": "M\u00fcnster Osnabr\u00fcck", "latitude": "52.134642", "longitude": "7.684831", "elevation": "49", "gmtOffset": "1"}, {"iatacode": "FKB", "city": "cty-Germany-24", "country": "D", "name": "Baden Airpark", "latitude": "48.7793", "longitude": "8.08048", "elevation": "124", "gmtOffset": "1"}, {"iatacode": "DUS", "city": "cty-Germany-10", "country": "D", "name": "D\u00fcsseldorf", "latitude": "51.289453", "longitude": "6.766775", "elevation": "45", "gmtOffset": "1"}, {"iatacode": "NUE", "city": "cty-Germany-14", "country": "D", "name": "N\u00fcrnberg", "latitude": "49.4987", "longitude": "11.066897", "elevation": "319", "gmtOffset": "1"}, {"iatacode": "DRS", "city": "cty-Germany-16", "country": "D", "name": "Dresden", "latitude": "51.132767", "longitude": "13.767161", "elevation": "230", "gmtOffset": "1"}, {"iatacode": "DTM", "city": "cty-Germany-8", "country": "D", "name": "Dortmund", "latitude": "51.518314", "longitude": "7.612242", "elevation": "130", "gmtOffset": "1"}, {"iatacode": "MUC", "city": "cty-Germany-Munich", "country": "D", "name": "Franz Josef Strauss", "latitude": "48.353783", "longitude": "11.786086", "elevation": "453", "gmtOffset": "1"}, {"iatacode": "ACC", "city": "cty-GH-5", "country": "GH", "name": "Kotoka Intl", "latitude": "5.605186", "longitude": "-0.166786", "elevation": "63", "gmtOffset": "0"}, {"iatacode": "GIB", "city": "cty-Gibraltar-Gibraltar", "country": "GBZ", "name": "Gibraltar", "latitude": "36.151219", "longitude": "-5.349664", "elevation": "5", "gmtOffset": "1"}, {"iatacode": "HER", "city": "cty-Greece-7", "country": "GR", "name": "Nikos Kazantzakis", "latitude": "35.339719", "longitude": "25.180297", "elevation": "35", "gmtOffset": "2", "located_on": {"island": "island-Crete"}}, {"iatacode": "IOA", "city": "cty-Greece-Ioannina", "country": "GR", "name": "Ioannina", "latitude": "39.696388", "longitude": "20.8225", "elevation": "475", "gmtOffset": "2"}, {"iatacode": "JMK", "country": "GR", "name": "Mikonos", "latitude": "37.435128", "longitude": "25.348103", "elevation": "123", "gmtOffset": "2", "located_on": {"island": "island-Mykonos"}}, {"iatacode": "JKH", "country": "GR", "name": "Chios", "latitude": "38.343175", "longitude": "26.140572", "elevation": "5", "gmtOffset": "2", "located_on": {"island": "island-Chios"}}, {"iatacode": "RHO", "city": "cty-Greece-Rhodes", "country": "GR", "name": "Rhodes Diagoras", "latitude": "36.405419", "longitude": "28.086192", "elevation": "5", "gmtOffset": "2", "located_on": {"island": "island-Rhodos"}}, {"iatacode": "ATH", "city": "cty-Greece-Athens", "country": "GR", "name": "Eleftherios Venizelos Intl", "latitude": "37.936358", "longitude": "23.944467", "elevation": "94", "gmtOffset": "2"}, {"iatacode": "EFL", "country": "GR", "name": "Kefallinia", "latitude": "38.120069", "longitude": "20.500481", "elevation": "18", "gmtOffset": "2", "located_on": {"island": "island-Kefallinia"}}, {"iatacode": "KVA", "city": "cty-Greece-9", "country": "GR", "name": "Megas Alexandros Intl", "latitude": "40.913306", "longitude": "24.619223", "elevation": "5", "gmtOffset": "2"}, {"iatacode": "CFU", "city": "cty-Greece-Korfu", "country": "GR", "name": "Ioannis Kapodistrias Intl", "latitude": "39.601944", "longitude": "19.911667", "elevation": "2", "gmtOffset": "2", "located_on": {"island": "island-Korfu"}}, {"iatacode": "SKG", "city": "cty-Greece-Thessaloniki", "country": "GR", "name": "Makedonia", "latitude": "40.519725", "longitude": "22.97095", "elevation": "7", "gmtOffset": "2"}, {"iatacode": "CHQ", "city": "cty-Greece-Chania", "country": "GR", "name": "Souda", "latitude": "35.531747", "longitude": "24.149678", "elevation": "149", "gmtOffset": "2", "located_on": {"island": "island-Crete"}}, {"iatacode": "SMI", "country": "GR", "name": "Samos", "latitude": "37.689999", "longitude": "26.911667", "elevation": "6", "gmtOffset": "2", "located_on": {"island": "island-Samos"}}, {"iatacode": "KGS", "country": "GR", "name": "Kos", "latitude": "36.793335", "longitude": "27.091667", "elevation": "126", "gmtOffset": "2", "located_on": {"island": "island-Kos"}}, {"iatacode": "MJT", "city": "cty-Greece-Mytilini", "country": "GR", "name": "Mitilini", "latitude": "39.056667", "longitude": "26.598333", "elevation": "18", "gmtOffset": "2", "located_on": {"island": "island-Lesbos"}}, {"iatacode": "GPA", "city": "cty-Greece-5", "country": "GR", "name": "Araxos", "latitude": "38.151111", "longitude": "21.425556", "elevation": "14", "gmtOffset": "2"}, {"iatacode": "ZTH", "country": "GR", "name": "Dionysios Solomos", "latitude": "37.750853", "longitude": "20.88425", "elevation": "5", "gmtOffset": "2", "located_on": {"island": "island-Zakinthos"}}, {"iatacode": "JIK", "country": "GR", "name": "Ikaria", "latitude": "37.682717", "longitude": "26.347061", "elevation": "24", "gmtOffset": "2", "located_on": {"island": "island-Ikaria"}}, {"iatacode": "JSY", "city": "cty-Greece-Ermoupoli", "country": "GR", "name": "Syros", "latitude": "37.422792", "longitude": "24.950936", "elevation": "72", "gmtOffset": "2", "located_on": {"island": "island-Syros"}}, {"iatacode": "GOH", "city": "cty-Greenland-Nuuk", "country": "GROX", "name": "Nuuk", "latitude": "64.190922", "longitude": "-51.678064", "elevation": "86", "gmtOffset": "-3", "located_on": {"island": "island-Greenland"}}, {"iatacode": "GND", "city": "cty-Grenada-Saint-Georges", "country": "WG", "name": "Point Salines Intl", "latitude": "12.004247", "longitude": "-61.786192", "elevation": "13", "gmtOffset": "-4", "located_on": {"island": "island-Grenada"}}, {"iatacode": "PTP", "city": "cty-GUAD-Basse-Terre", "country": "GUAD", "name": "Le Raizet", "latitude": "16.265306", "longitude": "-61.531806", "elevation": "11", "gmtOffset": "-4", "located_on": {"island": "island-Basse-Terre"}}, {"iatacode": "GUM", "city": "city-Agana-GUAM", "country": "GUAM", "name": "Guam Intl", "latitude": "13.48345", "longitude": "144.795983", "elevation": "91", "gmtOffset": "10", "located_on": {"island": "island-Guam"}}, {"iatacode": "GUA", "city": "cty-Guatemala-Guatemala-City", "country": "GCA", "name": "La Aurora", "latitude": "14.583272", "longitude": "-90.527475", "elevation": "1510", "gmtOffset": "-6"}, {"iatacode": "GCI", "city": "cty-Guernsey-Saint-Peter-Port", "country": "GBG", "name": "Guernsey", "latitude": "49.434956", "longitude": "-2.601969", "elevation": "102", "gmtOffset": "0", "located_on": {"island": "island-Guernsey"}}, {"iatacode": "CKY", "city": "cty-Guinea-Conakry", "country": "RG", "name": "Conakry", "latitude": "9.576889", "longitude": "-13.611961", "elevation": "22", "gmtOffset": "0"}, {"iatacode": "OXB", "city": "cty-Guinea-Bissau-Bissau", "country": "GNB", "name": "Osvaldo Vieira Intl", "latitude": "11.8947", "longitude": "-15.6536", "elevation": "39", "gmtOffset": "0"}, {"iatacode": "GEO", "city": "cty-Guyana-Georgetown", "country": "GUY", "name": "Cheddi Jagan Intl", "latitude": "6.498553", "longitude": "-58.254119", "elevation": "29", "gmtOffset": "-4"}, {"iatacode": "PAP", "city": "cty-Haiti-Port-au-Prince", "country": "RH", "name": "Toussaint Louverture Intl", "latitude": "18.58005", "longitude": "-72.292542", "elevation": "37", "gmtOffset": "-5", "located_on": {"island": "island-Hispaniola"}}, {"iatacode": "TGU", "city": "cty-Honduras-Tegucigalpa", "country": "HCA", "name": "Toncontin Intl", "latitude": "14.060883", "longitude": "-87.217197", "elevation": "1004", "gmtOffset": "-6"}, {"iatacode": "HKG", "city": "cty-Hongkong", "country": "HK", "name": "Hong Kong Intl", "latitude": "22.308919", "longitude": "113.914603", "elevation": "9", "gmtOffset": "8"}, {"iatacode": "BUD", "city": "cty-Hungary-Budapest", "country": "H", "name": "Ferihegy", "latitude": "47.436933", "longitude": "19.255592", "elevation": "151", "gmtOffset": "1"}, {"iatacode": "KEF", "city": "stadt-Keflavik-IS-IS", "country": "IS", "name": "Keflavik International Airport", "latitude": "63.985", "longitude": "-22.605556", "elevation": "52", "gmtOffset": "0", "located_on": {"island": "island-Iceland"}}, {"iatacode": "SXR", "city": "cty-India-43", "country": "IND", "name": "Srinagar", "latitude": "33.987139", "longitude": "74.77425", "elevation": "1655", "gmtOffset": "5.5"}, {"iatacode": "STV", "city": "cty-India-13", "country": "IND", "name": "Surat", "latitude": "21.114061", "longitude": "72.741792", "elevation": "5", "gmtOffset": "5.5"}, {"iatacode": "DED", "city": "cty-India-82", "country": "IND", "name": "Dehradun", "latitude": "30.189689", "longitude": "78.180256", "elevation": "558", "gmtOffset": "5.5"}, {"iatacode": "DEL", "city": "cty-India-New-Delhi", "country": "IND", "name": "Indira Gandhi Intl", "latitude": "28.5665", "longitude": "77.103088", "elevation": "237", "gmtOffset": "5.5"}, {"iatacode": "LKO", "city": "cty-India-11", "country": "IND", "name": "Lucknow", "latitude": "26.760594", "longitude": "80.889339", "elevation": "125", "gmtOffset": "5.5"}, {"iatacode": "CJB", "city": "cty-India-25", "country": "IND", "name": "Coimbatore", "latitude": "11.030031", "longitude": "77.043383", "elevation": "404", "gmtOffset": "5.5"}, {"iatacode": "COK", "city": "cty-India-46", "country": "IND", "name": "Cochin", "latitude": "10.155556", "longitude": "76.391389", "elevation": "2", "gmtOffset": "5.5"}, {"iatacode": "BHO", "city": "cty-India-16", "country": "IND", "name": "Bhopal", "latitude": "23.287467", "longitude": "77.337375", "elevation": "524", "gmtOffset": "5.5"}, {"iatacode": "BLR", "city": "cty-India-Bangalore", "country": "IND", "name": "Bangalore", "latitude": "12.949986", "longitude": "77.668206", "elevation": "888", "gmtOffset": "5.5"}, {"iatacode": "TRZ", "city": "cty-India-71", "country": "IND", "name": "Trichy", "latitude": "10.765364", "longitude": "78.709722", "elevation": "88", "gmtOffset": "5.5"}, {"iatacode": "TRV", "city": "cty-India-33", "country": "IND", "name": "Thiruvananthapuram Intl", "latitude": "8.482122", "longitude": "76.920114", "elevation": "5", "gmtOffset": "5.5"}, {"iatacode": "AJL", "city": "cty-India-Aijal", "country": "IND", "name": "Aizawl", "latitude": "23.746603", "longitude": "92.802767", "elevation": "305", "gmtOffset": "5.5"}, {"iatacode": "CCJ", "city": "cty-India-56", "country": "IND", "name": "Calicut", "latitude": "11.136839", "longitude": "75.9553", "elevation": "104", "gmtOffset": "5.5"}, {"iatacode": "CCU", "city": "cty-India-Calcutta", "country": "IND", "name": "Netaji Subhash Chandra Bose Intl", "latitude": "22.654739", "longitude": "88.446722", "elevation": "5", "gmtOffset": "5.5"}, {"iatacode": "BBI", "city": "cty-India-64", "country": "IND", "name": "Bhubaneshwar", "latitude": "20.244364", "longitude": "85.817781", "elevation": "42", "gmtOffset": "5.5"}, {"iatacode": "VGA", "city": "cty-India-32", "country": "IND", "name": "Vijayawada", "latitude": "16.530433", "longitude": "80.796847", "elevation": "25", "gmtOffset": "5.5"}, {"iatacode": "VNS", "city": "cty-India-22", "country": "IND", "name": "Varanasi", "latitude": "25.452358", "longitude": "82.859342", "elevation": "81", "gmtOffset": "5.5"}, {"iatacode": "DIU", "city": "cty-India-Daman", "country": "IND", "name": "Diu Airport", "latitude": "20.7131", "longitude": "70.9211", "elevation": "9", "gmtOffset": "5.5"}, {"iatacode": "VTZ", "city": "cty-India-30", "country": "IND", "name": "Visakhapatnam", "latitude": "17.721167", "longitude": "83.224483", "elevation": "5", "gmtOffset": "5.5"}, {"iatacode": "NAG", "city": "cty-India-Nagpur", "country": "IND", "name": "Dr Ambedkar Intl", "latitude": "21.092192", "longitude": "79.047183", "elevation": "315", "gmtOffset": "5.5"}, {"iatacode": "GOP", "city": "cty-India-52", "country": "IND", "name": "Gorakhpur Airport", "latitude": "26.739708", "longitude": "83.449708", "elevation": "79", "gmtOffset": "5.5"}, {"iatacode": "GAU", "city": "cty-India-45", "country": "IND", "name": "Lokpriya Gopinath Bordoloi International Airport", "latitude": "26.106092", "longitude": "91.585939", "elevation": "49", "gmtOffset": "5.5"}, {"iatacode": "PNQ", "city": "cty-India-12", "country": "IND", "name": "Pune", "latitude": "18.582111", "longitude": "73.919697", "elevation": "592", "gmtOffset": "5.5"}, {"iatacode": "GOI", "city": "cty-India-Panaji", "country": "IND", "name": "Goa", "latitude": "15.380833", "longitude": "73.831422", "elevation": "56", "gmtOffset": "5.5"}, {"iatacode": "IMF", "city": "cty-India-Imphal", "country": "IND", "name": "Imphal", "latitude": "24.75995", "longitude": "93.896697", "elevation": "774", "gmtOffset": "5.5"}, {"iatacode": "IDR", "city": "cty-India-15", "country": "IND", "name": "Devi Ahilyabai Holkar", "latitude": "22.721786", "longitude": "75.801086", "elevation": "564", "gmtOffset": "5.5"}, {"iatacode": "RAJ", "city": "cty-India-39", "country": "IND", "name": "Rajkot", "latitude": "22.309183", "longitude": "70.779525", "elevation": "134", "gmtOffset": "5.5"}, {"iatacode": "HYD", "city": "cty-India-7", "country": "IND", "name": "Hyderabad", "latitude": "17.453117", "longitude": "78.467586", "elevation": "531", "gmtOffset": "5.5"}, {"iatacode": "RPR", "city": "cty-India-59", "country": "IND", "name": "Raipur", "latitude": "21.180406", "longitude": "81.738753", "elevation": "317", "gmtOffset": "5.5"}, {"iatacode": "JLR", "city": "cty-India-28", "country": "IND", "name": "Jabalpur", "latitude": "23.177817", "longitude": "80.052047", "elevation": "495", "gmtOffset": "5.5"}, {"iatacode": "RJA", "city": "cty-India-78", "country": "IND", "name": "Rajahmundry", "latitude": "17.110361", "longitude": "81.818208", "elevation": "46", "gmtOffset": "5.5"}, {"iatacode": "JGA", "city": "cty-India-76", "country": "IND", "name": "Jamnagar", "latitude": "22.465522", "longitude": "70.012556", "elevation": "21", "gmtOffset": "5.5"}, {"iatacode": "JDH", "city": "cty-India-35", "country": "IND", "name": "Jodhpur", "latitude": "26.251092", "longitude": "73.048869", "elevation": "219", "gmtOffset": "5.5"}, {"iatacode": "JAI", "city": "cty-India-14", "country": "IND", "name": "Jaipur", "latitude": "26.824192", "longitude": "75.812161", "elevation": "385", "gmtOffset": "5.5"}, {"iatacode": "IXZ", "city": "cty-India-Port-Blair", "country": "IND", "name": "Port Blair", "latitude": "11.641161", "longitude": "92.729744", "elevation": "4", "gmtOffset": "5.5", "located_on": {"island": "island-SouthAndaman"}}, {"iatacode": "IXR", "city": "cty-India-42", "country": "IND", "name": "Birsa Munda", "latitude": "23.31425", "longitude": "85.321675", "elevation": "655", "gmtOffset": "5.5"}, {"iatacode": "IXU", "city": "cty-India-47", "country": "IND", "name": "Aurangabad", "latitude": "19.862728", "longitude": "75.398114", "elevation": "583", "gmtOffset": "5.5"}, {"iatacode": "IXC", "city": "cty-India-50", "country": "IND", "name": "Chandigarh", "latitude": "30.673469", "longitude": "76.788542", "elevation": "309", "gmtOffset": "5.5"}, {"iatacode": "IXA", "city": "cty-India-Agartala", "country": "IND", "name": "Agartala", "latitude": "23.886978", "longitude": "91.24045", "elevation": "14", "gmtOffset": "5.5"}, {"iatacode": "IXM", "city": "cty-India-21", "country": "IND", "name": "Madurai", "latitude": "9.834508", "longitude": "78.093378", "elevation": "140", "gmtOffset": "5.5"}, {"iatacode": "IXJ", "city": "stadt-Jammu-IND-JAK", "country": "IND", "name": "Jammu", "latitude": "32.689142", "longitude": "74.837389", "elevation": "314", "gmtOffset": "5.5"}, {"iatacode": "ATQ", "city": "cty-India-31", "country": "IND", "name": "Amritsar", "latitude": "31.709594", "longitude": "74.797264", "elevation": "230", "gmtOffset": "5.5"}, {"iatacode": "MAA", "city": "cty-India-Madras", "country": "IND", "name": "Chennai Intl", "latitude": "12.994414", "longitude": "80.180517", "elevation": "16", "gmtOffset": "5.5"}, {"iatacode": "BOM", "city": "cty-India-2", "country": "IND", "name": "Chhatrapati Shivaji Intl", "latitude": "19.088686", "longitude": "72.867919", "elevation": "11", "gmtOffset": "5.5"}, {"iatacode": "AMD", "city": "cty-India-8", "country": "IND", "name": "Ahmedabad", "latitude": "23.077242", "longitude": "72.63465", "elevation": "58", "gmtOffset": "5.5"}, {"iatacode": "IXD", "city": "cty-India-26", "country": "IND", "name": "Allahabad", "latitude": "25.440064", "longitude": "81.733872", "elevation": "98", "gmtOffset": "5.5"}, {"iatacode": "BDJ", "city": "cty-RI-22", "country": "RI", "name": "Syamsudin Noor", "latitude": "-3.442356", "longitude": "114.762553", "elevation": "20", "gmtOffset": "8", "located_on": {"island": "island-Borneo"}}, {"iatacode": "KDI", "city": "cty-RI-27", "country": "RI", "name": "Wolter Monginsidi", "latitude": "-4.081608", "longitude": "122.418231", "elevation": "164", "gmtOffset": "8", "located_on": {"island": "island-Sulawesi"}}, {"iatacode": "TKG", "city": "cty-RI-8", "country": "RI", "name": "Radin Inten II (Branti) Airport", "latitude": "-5.242339", "longitude": "105.178939", "elevation": "86", "gmtOffset": "7", "located_on": {"island": "island-Sumatra"}}, {"iatacode": "BTH", "city": "cty-RI-45", "country": "RI", "name": "Hang Nadim", "latitude": "1.121028", "longitude": "104.118753", "elevation": "38", "gmtOffset": "7", "located_on": {"island": "island-Batam"}}, {"iatacode": "KOE", "city": "cty-RI-19", "country": "RI", "name": "El Tari", "latitude": "-10.171583", "longitude": "123.671136", "elevation": "102", "gmtOffset": "8", "located_on": {"island": "island-Timor"}}, {"iatacode": "TTE", "city": "cty-RI-31", "country": "RI", "name": "Sultan Babullah", "latitude": ".831414", "longitude": "127.381486", "elevation": "15", "gmtOffset": "9", "located_on": {"island": "island-Ternate"}}, {"iatacode": "BKS", "city": "cty-RI-7", "country": "RI", "name": "Fatmawati Soekarno", "latitude": "-3.8637", "longitude": "102.339036", "elevation": "15", "gmtOffset": "7", "located_on": {"island": "island-Sumatra"}}, {"iatacode": "AMQ", "city": "cty-RI-30", "country": "RI", "name": "Pattimura", "latitude": "-3.710264", "longitude": "128.089136", "elevation": "10", "gmtOffset": "9", "located_on": {"island": "island-Ambon"}}, {"iatacode": "BPN", "city": "cty-RI-36", "country": "RI", "name": "Sepinggan", "latitude": "-1.268272", "longitude": "116.894478", "elevation": "4", "gmtOffset": "8", "located_on": {"island": "island-Borneo"}}, {"iatacode": "MLG", "city": "cty-RI-34", "country": "RI", "name": "Abdul Rachman Saleh", "latitude": "-7.926556", "longitude": "112.714514", "elevation": "526", "gmtOffset": "7", "located_on": {"island": "island-Java"}}, {"iatacode": "MDC", "city": "cty-RI-24", "country": "RI", "name": "Sam Ratulangi", "latitude": "1.549447", "longitude": "124.925878", "elevation": "80", "gmtOffset": "8", "located_on": {"island": "island-Sulawesi"}}, {"iatacode": "DJJ", "city": "cty-RI-33", "country": "RI", "name": "Sentani", "latitude": "-2.576953", "longitude": "140.516372", "elevation": "88", "gmtOffset": "9", "located_on": {"island": "island-New-Guinea"}}, {"iatacode": "LOP", "city": "cty-RI-18", "country": "RI", "name": "Lombok International Airport", "latitude": "-8.7573222", "longitude": "116.276675", "elevation": "16", "gmtOffset": "8", "located_on": {"island": "island-Lombok"}}, {"iatacode": "SRG", "city": "cty-RI-13", "country": "RI", "name": "Achmad Yani", "latitude": "-6.971447", "longitude": "110.374122", "elevation": "4", "gmtOffset": "7", "located_on": {"island": "island-Java"}}, {"iatacode": "DJB", "city": "cty-RI-5", "country": "RI", "name": "Sultan Thaha", "latitude": "-1.638017", "longitude": "103.644378", "elevation": "25", "gmtOffset": "7", "located_on": {"island": "island-Sumatra"}}, {"iatacode": "CGK", "city": "cty-RI-11", "country": "RI", "name": "Soekarno Hatta Intl", "latitude": "-6.125567", "longitude": "106.655897", "elevation": "10", "gmtOffset": "7", "located_on": {"island": "island-Java"}}, {"iatacode": "BDO", "city": "cty-RI-12", "country": "RI", "name": "Husein Sastranegara", "latitude": "-6.900625", "longitude": "107.576294", "elevation": "743", "gmtOffset": "7", "located_on": {"island": "island-Java"}}, {"iatacode": "UPG", "city": "cty-RI-26", "country": "RI", "name": "Hasanuddin", "latitude": "-5.061631", "longitude": "119.554042", "elevation": "14", "gmtOffset": "8", "located_on": {"island": "island-Sulawesi"}}, {"iatacode": "DPS", "city": "cty-RI-17", "country": "RI", "name": "Bali Ngurah Rai", "latitude": "-8.748169", "longitude": "115.167172", "elevation": "4", "gmtOffset": "8", "located_on": {"island": "island-Bali"}}, {"iatacode": "PLW", "city": "cty-RI-25", "country": "RI", "name": "Mutiara", "latitude": "-0.918542", "longitude": "119.909642", "elevation": "87", "gmtOffset": "8", "located_on": {"island": "island-Sulawesi"}}, {"iatacode": "PGK", "city": "cty-RI-9", "country": "RI", "name": "Depati Amir", "latitude": "-2.1622", "longitude": "106.139064", "elevation": "33", "gmtOffset": "7", "located_on": {"island": "island-Bangka"}}, {"iatacode": "PKY", "city": "cty-RI-21", "country": "RI", "name": "Tjilik Riwut", "latitude": "-2.225128", "longitude": "113.942661", "elevation": "25", "gmtOffset": "7", "located_on": {"island": "island-Borneo"}}, {"iatacode": "PLM", "city": "cty-RI-6", "country": "RI", "name": "Sultan Mahmud Badaruddin Ii", "latitude": "-2.89825", "longitude": "104.699903", "elevation": "15", "gmtOffset": "7", "located_on": {"island": "island-Sumatra"}}, {"iatacode": "GTO", "city": "cty-RI-28", "country": "RI", "name": "Jalaluddin", "latitude": ".637119", "longitude": "122.849858", "elevation": "32", "gmtOffset": "8", "located_on": {"island": "island-Sulawesi"}}, {"iatacode": "PNK", "city": "cty-RI-20", "country": "RI", "name": "Supadio", "latitude": "-0.150711", "longitude": "109.403892", "elevation": "3", "gmtOffset": "7", "located_on": {"island": "island-Borneo"}}, {"iatacode": "PKU", "city": "cty-RI-4", "country": "RI", "name": "Sultan Syarif Kasim Ii", "latitude": ".460786", "longitude": "101.444539", "elevation": "31", "gmtOffset": "7", "located_on": {"island": "island-Sumatra"}}, {"iatacode": "PDG", "city": "cty-RI-3", "country": "RI", "name": "Tabing", "latitude": "-0.874989", "longitude": "100.351881", "elevation": "3", "gmtOffset": "7", "located_on": {"island": "island-Sumatra"}}, {"iatacode": "JOG", "city": "cty-RI-14", "country": "RI", "name": "Adi Sutjipto", "latitude": "-7.788181", "longitude": "110.431758", "elevation": "107", "gmtOffset": "7", "located_on": {"island": "island-Java"}}, {"iatacode": "BTJ", "city": "cty-RI-1", "country": "RI", "name": "Sultan Iskandarmuda", "latitude": "5.523522", "longitude": "95.420372", "elevation": "20", "gmtOffset": "7", "located_on": {"island": "island-Sumatra"}}, {"iatacode": "MES", "city": "cty-RI-2", "country": "RI", "name": "Polonia", "latitude": "3.558056", "longitude": "98.671722", "elevation": "35", "gmtOffset": "7", "located_on": {"island": "island-Sumatra"}}, {"iatacode": "SUB", "city": "cty-RI-15", "country": "RI", "name": "Juanda", "latitude": "-7.379831", "longitude": "112.786858", "elevation": "3", "gmtOffset": "7", "located_on": {"island": "island-Java"}}, {"iatacode": "AWZ", "city": "cty-Iran-7", "country": "IR", "name": "Ahwaz", "latitude": "31.337431", "longitude": "48.76195", "elevation": "20", "gmtOffset": "3.5"}, {"iatacode": "ABD", "city": "cty-Iran-53", "country": "IR", "name": "Abadan", "latitude": "30.371111", "longitude": "48.228333", "elevation": "6", "gmtOffset": "3.5"}, {"iatacode": "SYZ", "city": "cty-Iran-6", "country": "IR", "name": "Shiraz Shahid Dastghaib Intl", "latitude": "29.539242", "longitude": "52.589786", "elevation": "1500", "gmtOffset": "3.5"}, {"iatacode": "IFN", "city": "cty-Iran-4", "country": "IR", "name": "Esfahan Shahid Beheshti Intl", "latitude": "32.750836", "longitude": "51.861267", "elevation": "1542", "gmtOffset": "3.5"},