[{"id": "desert-Kalahari", "country": "NAM RB RSA ANG Z", "name": "Kalahari", "located": [{"country": "ANG", "province": "prov-Angola-15 prov-Angola-14"}, {"country": "Z", "province": "prov-Zambia-9 prov-Zambia-10"}, {"country": "RSA", "province": "prov-South-Africa-9"}], "area": "1200000", "latitude": "-22", "longitude": "21"}, {"id": "desert-Namib", "country": "NAM", "type": "sand", "name": "Namib", "area": "95000", "latitude": "-25", "longitude": "15"}, {"id": "desert-Ferlo", "country": "SN", "name": "Ferlo", "located": {"country": "SN", "province": "prov-Senegal-9 prov-Senegal-8 prov-Senegal-7 prov-Senegal-12"}, "area": "70000", "latitude": "15", "longitude": "-14"}, {"id": "desert-Trarza", "country": "RIM", "name": "Trarza", "located": {"country": "RIM", "province": "prov-RIM-1 prov-RIM-3 prov-RIM-9 prov-RIM-13"}, "area": "50000", "latitude": "18", "longitude": "-15"}, {"id": "desert-Ouarane", "country": "RIM", "name": "Erg Ouarane", "located": {"country": "RIM", "province": "prov-RIM-1 prov-RIM-12"}, "area": "80000", "latitude": "21", "longitude": "-11"}, {"id": "desert-Maqteir", "country": "RIM", "name": "Erg Maqteir", "located": {"country": "RIM", "province": "prov-RIM-1 prov-RIM-12"}, "area": "40000", "latitude": "22", "longitude": "-11"}, {"id": "desert-Saguia_el-Hamra", "country": "WSA", "name": "Saguia el-Hamra", "area": "25000", "latitude": "27", "longitude": "-10"}, {"id": "desert-Erg_Igidi", "country": "DZ RIM", "name": "Erg Igidi", "located": {"country": "RIM", "province": "prov-RIM-12"}, "area": "150000", "latitude": "27", "longitude": "-5"}, {"id": "desert-Hamada_des_Draa", "country": "DZ MA", "name": "Hamada du Draa", "located": {"country": "MA", "province": "prov-MA-3 prov-MA-4"}, "area": "35000"}, {"id": "desert-Erg_Chech", "country": "DZ RMM", "name": "Erg Chech", "located": {"country": "RMM", "province": "prov-RMM-9"}, "area": "10000", "latitude": "25", "longitude": "-3"}, {"id": "desert-Tanezrouft", "country": "DZ RMM", "name": "Tanezrouft", "located": {"country": "RMM", "province": "prov-RMM-9"}, "area": "160000", "latitude": "23", "longitude": "0"}, {"id": "desert-Westl-_Grosser_Erg", "country": "DZ", "name": "Grand Erg Ouest", "area": "200000", "latitude": "30", "longitude": "-1"}, {"id": "desert-Oestl-_Grosser_Erg", "country": "DZ TN", "name": "Grand Erg Est", "area": "150000", "latitude": "31", "longitude": "8"}, {"id": "desert-Erg_Isaouane", "country": "DZ", "name": "Erg Isaouane", "area": "80000", "latitude": "28", "longitude": "8"}, {"id": "desert-Hamada_al-Hamra", "country": "LAR", "name": "Hamada al-Hamra", "area": "84000", "latitude": "30", "longitude": "12"}, {"id": "desert-Fesan", "country": "LAR", "name": "Fesan", "area": "300000", "latitude": "26", "longitude": "13"}, {"id": "desert-Erg_Rebiana", "country": "LAR", "name": "Erg Rebiana", "area": "200000", "latitude": "23", "longitude": "22"}, {"id": "desert-Talak", "country": "RMM RN", "type": "sand", "name": "Talak", "located": [{"country": "RMM", "province": "prov-RMM-2 prov-RMM-4"}, {"country": "RN", "province": "prov-RN-1 prov-RN-6"}], "area": "100000", "latitude": "17", "longitude": "6"}, {"id": "desert-Tenere", "country": "RN TCH", "type": "sand", "name": "Tenere", "located": {"country": "RN", "province": "prov-RN-1 prov-RN-7 prov-RN-8"}, "area": "600000", "latitude": "18", "longitude": "11"}, {"id": "desert-Djourab", "country": "TCH", "name": "Djourab", "area": "100000", "latitude": "17", "longitude": "18"}, {"id": "desert-Ennedi", "country": "TCH", "name": "Erdi Ennedi", "area": "180000", "latitude": "18", "longitude": "22"}, {"id": "desert-Libysche_Wueste", "country": "ET LAR SUD TCH", "name": "Libyan Desert", "located": {"country": "SUD", "province": "prov-SUD-7 prov-SUD-15"}, "area": "1100000"}, {"id": "desert-Darfur", "country": "SUD", "name": "Darfur", "located": {"country": "SUD", "province": "prov-SUD-7 prov-SUD-15 prov-SUD-16"}, "area": "500000", "latitude": "15", "longitude": "27"}, {"id": "desert-Arabische_Wueste", "country": "ET", "name": "Arabian Desert", "area": "50000", "latitude": "33", "longitude": "26"}, {"id": "desert-Nubische_Wueste", "country": "SUD", "name": "Nubian Desert", "located": {"country": "SUD", "province": "prov-SUD-1 prov-SUD-7 prov-SUD-13"}, "area": "250000", "latitude": "20.5", "longitude": "33"}, {"id": "desert-Negev", "country": "IL", "name": "Negev", "located": {"country": "IL", "province": "prov-Israel-7"}, "area": "12000", "latitude": "30.5", "longitude": "35"}, {"id": "desert-SyrianDesert", "country": "SYR JOR SA IRQ", "name": "Syrian Desert", "located": [{"country": "IRQ", "province": "prov-Iraq-2"}, {"country": "SA", "province": "prov-SA-1 prov-SA-3"}, {"country": "SYR", "province": "prov-SYR-7 prov-SYR-11 prov-SYR-13"}], "area": "518000", "latitude": "33", "longitude": "39"}, {"id": "desert-Nefud", "country": "SA", "type": "sand", "name": "Nefud", "located": {"country": "SA", "province": "prov-SA-1 prov-SA-3 prov-SA-9"}, "area": "78000", "latitude": "28", "longitude": "42"}, {"id": "desert-RubAlChali", "country": "SA OM YE UAE", "type": "sand", "name": "Rub Al Chali", "located": {"country": "SA", "province": "prov-SA-6 prov-SA-7 prov-SA-8 prov-SA-12"}, "area": "780000", "latitude": "21", "longitude": "51"}, {"id": "desert-DaschteKavir", "country": "IR", "name": "Dascht-e-Kavir", "located": {"country": "IR", "province": "prov-Iran-8 prov-Iran-15 prov-Iran-21 prov-Iran-23 prov-Iran-24 prov-Iran-29"}, "area": "77600", "latitude": "32.5", "longitude": "55"}, {"id": "desert-DaschteLut", "country": "IR", "name": "Dascht-e-Lut", "located": {"country": "IR", "province": "prov-Iran-8 prov-Iran-14 prov-Iran-32 prov-Iran-22 prov-Iran-24"}, "area": "166000", "latitude": "32.5", "longitude": "57"}, {"id": "desert-DaschteMargoh", "country": "AFG", "name": "Dascht-e-Margoh", "area": "40000", "latitude": "31", "longitude": "62"}, {"id": "desert-Rigestan", "country": "AFG PK", "name": "Rigestan", "located": {"country": "PK", "province": "prov-PK-2"}, "area": "25000", "latitude": "30", "longitude": "65"}, {"id": "desert-Thar", "country": "IND PK", "name": "Thar", "located": [{"country": "IND", "province": "prov-India-7 prov-India-8 prov-India-20 prov-India-21"}, {"country": "PK", "province": "prov-PK-7 prov-PK-8"}], "area": "240000", "latitude": "27.5", "longitude": "72"}, {"id": "desert-Ryn", "country": "R KAZ", "name": "Ryn", "located": [{"country": "R", "province": "prov-Russia-39 prov-Russia-37"}, {"country": "KAZ", "province": "prov-Kazakhstan-5 prov-Kazakhstan-6"}], "area": "80000", "latitude": "48", "longitude": "47"}, {"id": "desert-UstUrt", "country": "KAZ UZB", "name": "Ust Urt", "located": [{"country": "KAZ", "province": "prov-Kazakhstan-4 prov-Kazakhstan-8"}, {"country": "UZB", "province": "prov-Uzbekistan-15"}], "area": "180000", "latitude": "43", "longitude": "56"}, {"id": "desert-Karakum", "country": "TM UZB", "name": "Karakum", "located": [{"country": "TM", "province": "prov-Turkmenistan-2 prov-Turkmenistan-3 prov-Turkmenistan-4 prov-Turkmenistan-5 prov-Turkmenistan-6"}, {"country": "UZB", "province": "prov-Uzbekistan-10 prov-Uzbekistan-15"}], "area": "400000", "latitude": "40", "longitude": "60"}, {"id": "desert-Kysylkum", "country": "UZB KAZ", "name": "Kysylkum", "located": [{"country": "UZB", "province": "prov-Uzbekistan-5 prov-Uzbekistan-10 prov-Uzbekistan-15"}, {"country": "KAZ", "province": "prov-Kazakhstan-13"}], "area": "200000", "latitude": "44", "longitude": "65"}, {"id": "desert-Aralkum", "country": "UZB KAZ", "type": "salt", "name": "Aralkum", "located": [{"country": "UZB", "province": "prov-Uzbekistan-15"}, {"country": "KAZ", "province": "prov-Kazakhstan-13"}], "area": "10000", "latitude": "45.5", "longitude": "60"}, {"id": "desert-Mujunkum", "country": "KAZ", "name": "Mujunkum", "located": {"country": "KAZ", "province": "prov-Kazakhstan-13 prov-Kazakhstan-19"}, "area": "37500", "latitude": "44", "longitude": "72"}, {"id": "desert-TaklaMakan", "country": "CN", "type": "sand", "name": "Takla Makan", "located": {"country": "CN", "province": "prov-China-28"}, "area": "300000", "latitude": "38", "longitude": "82"}, {"id": "desert-Gurbantunggut", "country": "CN", "name": "Gurbantunggut", "located": {"country": "CN", "province": "prov-China-28"}, "area": "48800", "latitude": "45", "longitude": "87.5"}, {"id": "desert-KumTagh", "country": "CN", "type": "sand", "name": "Kum Tagh", "located": {"country": "CN", "province": "prov-China-28"}, "area": "22000", "latitude": "40", "longitude": "92"}, {"id": "desert-Qaidam", "country": "CN", "name": "Qaidam", "located": {"country": "CN", "province": "prov-China-17"}, "area": "120000", "latitude": "37.5", "longitude": "95"}, {"id": "desert-Gobi", "country": "CN MNG", "name": "Gobi", "located": {"country": "CN", "province": "prov-China-4 prov-China-27 prov-China-26"}, "area": "1000000", "latitude": "41", "longitude": "105"}, {"id": "desert-Ordos", "country": "CN", "name": "Ordos", "located": {"country": "CN", "province": "prov-China-18 prov-China-26 prov-China-27"}, "area": "90000", "latitude": "38", "longitude": "108"}, {"id": "desert-GreatSandy", "country": "AUS", "type": "sand", "name": "Great Sandy Desert", "located": {"country": "AUS", "province": "prov-Australia-8"}, "area": "360000", "latitude": "-20", "longitude": "123"}, {"id": "desert-Gibsonwueste", "country": "AUS", "name": "Gibson Desert", "located": {"country": "AUS", "province": "prov-Australia-8"}, "area": "310800", "latitude": "-23", "longitude": "125"}, {"id": "desert-GreatVictoria", "country": "AUS", "name": "Great Victoria Desert", "located": {"country": "AUS", "province": "prov-Australia-8 prov-Australia-5"}, "area": "424400", "latitude": "-29", "longitude": "129"}, {"id": "desert-Nullarbor", "country": "AUS", "type": "lime", "name": "Nullarbor Plain", "located": {"country": "AUS", "province": "prov-Australia-8 prov-Australia-5"}, "area": "200000", "latitude": "-31", "longitude": "129"}, {"id": "desert-Simpsonwueste", "country": "AUS", "type": "sand", "name": "Simpson Desert", "located": {"country": "AUS", "province": "prov-Australia-3 prov-Australia-4 prov-Australia-5"}, "area": "176500", "latitude": "-25", "longitude": "137"}, {"id": "desert-redCentre", "country": "AUS", "type": "sand", "name": "Red Centre", "located": {"country": "AUS", "province": "prov-Australia-3 prov-Australia-8 prov-Australia-5"}, "area": "1000000", "latitude": "-26", "longitude": "135"}, {"id": "desert-Tanamiwueste", "country": "AUS", "type": "sand", "name": "Tanami", "located": {"country": "AUS", "province": "prov-Australia-3"}, "area": "37500", "latitude": "-20", "longitude": "130"}, {"id": "desert-Sturt", "country": "AUS", "name": "Sturt Desert", "located": {"country": "AUS", "province": "prov-Australia-3 prov-Australia-2 prov-Australia-4"}, "area": "13000", "latitude": "-29", "longitude": "141"}, {"id": "desert-Owyhee", "country": "USA", "name": "Owyhee", "located": {"country": "USA", "province": "prov-United-States-13 prov-United-States-29 prov-United-States-38"}, "area": "36000", "latitude": "42", "longitude": "-117"}, {"id": "desert-GeatSaltLakeDesert", "country": "USA", "type": "salt", "name": "Great Salt Lake Desert", "located": {"country": "USA", "province": "prov-United-States-45"}, "area": "10360", "latitude": "41", "longitude": "-114"}, {"id": "desert-Colorado", "country": "USA", "name": "Colorado Plateau", "located": {"country": "USA", "province": "prov-United-States-4 prov-United-States-7 prov-United-States-32 prov-United-States-45"}, "area": "337000", "latitude": "36", "longitude": "-110"}, {"id": "desert-GreatBasin", "country": "USA", "name": "Great Basin", "located": {"country": "USA", "province": "prov-United-States-6 prov-United-States-29 prov-United-States-45"}, "area": "300000", "latitude": "38", "longitude": "-117"}, {"id": "desert-Mojave", "country": "USA", "name": "Mojave", "located": {"country": "USA", "province": "prov-United-States-29 prov-United-States-6 prov-United-States-4 prov-United-States-45"}, "area": "57000", "latitude": "36.2", "longitude": "-115.2"}, {"id": "desert-Sonora", "country": "USA MEX", "name": "Sonora", "located": [{"country": "MEX", "province": "prov-Mexico-26 prov-Mexico-7"}, {"country": "USA", "province": "prov-United-States-4 prov-United-States-6"}], "area": "320000", "latitude": "32", "longitude": "-113"}, {"id": "desert-Chihuahua", "country": "USA MEX", "name": "Chihuahua", "located": [{"country": "MEX", "province": "prov-Mexico-26 prov-Mexico-7 prov-Mexico-8 prov-Mexico-10 prov-Mexico-32 prov-Mexico-19"}, {"country": "USA", "province": "prov-United-States-32 prov-United-States-44 prov-United-States-4"}], "area": "360000", "latitude": "31", "longitude": "-105"}, {"id": "desert-BajaCalifornia", "country": "MEX", "name": "Baja California Desert", "located": {"country": "MEX", "province": "prov-Mexico-3"}, "area": "30000", "latitude": "31", "longitude": "-116"}, {"id": "desert-Atacama", "country": "RCH", "name": "Atacama", "located": {"country": "RCH", "province": "prov-Chile-1 prov-Chile-2 prov-Chile-3 prov-Chile-15"}, "area": "181300", "latitude": "-24.5", "longitude": "-69.25"}]