[{"id": "mount-GunnbjornFjeld", "country": "GROX", "island": "island-Greenland", "name": "Gunnbj\u00f8rn Fjeld", "latitude": "68.92", "longitude": "-29.9", "elevation": "3694"}, {"id": "mount-Newtontoppen", "country": "SVAX", "island": "island-Svalbard", "name": "Newtontoppen", "latitude": "79.0", "longitude": "17.3", "elevation": "1713"}, {"id": "mount-Hvannadalshnukur", "country": "IS", "type": "volcanic", "island": "island-Iceland", "name": "Hvannadalshnukur", "latitude": "64.1", "longitude": "-16.7", "elevation": "2110"}, {"id": "mount-Snaefell", "country": "IS", "type": "volcanic", "island": "island-Iceland", "name": "Snaefell", "latitude": "64.5", "longitude": "-15.2", "elevation": "1833"}, {"id": "mount-Hekla", "country": "IS", "type": "volcano", "island": "island-Iceland", "last_eruption": "2000-02-26", "name": "Hekla", "latitude": "64", "longitude": "-19.7", "elevation": "1491"}, {"id": "mount-Katla", "country": "IS", "type": "volcano", "island": "island-Iceland", "last_eruption": "1918-10-12", "name": "Katla", "latitude": "63.6", "longitude": "-19.0", "elevation": "1450"}, {"id": "mount-Haltiatunturi", "country": "SF", "name": "Haltiatunturi", "mountains": "Scandinavian Mountains", "located": {"country": "SF", "province": "prov-SF-10"}, "latitude": "69.3", "longitude": "21.27", "elevation": "1365"}, {"id": "mount-Kebnekaise", "country": "S", "name": "Kebnekaise", "mountains": "Scandinavian Mountains", "located": {"country": "S", "province": "prov-Sweden-15"}, "latitude": "67.9", "longitude": "18.5", "elevation": "2099"}, {"id": "mount-Sarektjokko", "country": "S", "name": "Sarektjokko", "mountains": "Scandinavian Mountains", "located": {"country": "S", "province": "prov-Sweden-15"}, "latitude": "67.43", "longitude": "17.71", "elevation": "2089"}, {"id": "mount-Higravstinden", "country": "N", "island": "island-Aust-Vagoey", "name": "Higravstinden", "located": {"country": "N", "province": "lteil-NO-N"}, "latitude": "68.36", "longitude": "14.79", "elevation": "1146"}, {"id": "mount-Galdhoeppig", "country": "N", "name": "Galdhoeppig", "mountains": "Scandinavian Mountains", "located": {"country": "N", "province": "lteil-OP-N"}, "latitude": "61.64", "longitude": "8.31", "elevation": "2469"}, {"id": "mount-Glittertind", "country": "N", "name": "Glittertind", "mountains": "Scandinavian Mountains", "located": {"country": "N", "province": "lteil-OP-N"}, "latitude": "61.65", "longitude": "8.55", "elevation": "2465"}, {"id": "mount-Snoehetta", "country": "N", "name": "Snoehetta", "mountains": "Scandinavian Mountains", "located": {"country": "N", "province": "lteil-OP-N"}, "latitude": "62.32", "longitude": "9.27", "elevation": "2286"}, {"id": "mount-BenNevis", "country": "GB", "island": "island-GreatBritain", "name": "Ben Nevis", "mountains": "Grampians", "located": {"country": "GB", "province": "prov-gb-10"}, "latitude": "56.8", "longitude": "-5.0", "elevation": "1344"}, {"id": "mount-Snowdon", "country": "GB", "island": "island-GreatBritain", "name": "Snowdon", "located": {"country": "GB", "province": "prov-gb-11"}, "latitude": "53.08", "longitude": "-4.08", "elevation": "1015"}, {"id": "mount-SgurrAlasdair", "country": "GB", "island": "island-Skye", "name": "Sg\u00f9rr Alasdair", "located": {"country": "GB", "province": "prov-gb-10"}, "latitude": "57.21", "longitude": "-6.22", "elevation": "993"}, {"id": "mount-Carrantuohill", "country": "IRL", "island": "island-Ireland", "name": ["Carrauntoohil", "Carrantuohill", "Corr\u00e1n Tuathail"], "mountains": "Armorican Highlands", "latitude": "52.00", "longitude": "-9.74", "elevation": "1041"}, {"id": "mount-SlieveDonard", "country": "GB", "island": "island-Ireland", "name": "Slieve Donard", "located": {"country": "GB", "province": "prov-gb-12"}, "latitude": "54.18", "longitude": "-5.92", "elevation": "849"}, {"id": "mount-Feldberg", "country": "D", "name": "Feldberg", "mountains": "Black Forest", "located": {"country": "D", "province": "prov-Germany-2"}, "latitude": "47.87", "longitude": "8.00", "elevation": "1493"}, {"id": "mount-Brocken", "country": "D", "name": "Brocken", "mountains": "Harz", "located": {"country": "D", "province": "prov-Germany-15"}, "latitude": "51.8", "longitude": "10.6", "elevation": "1141"}, {"id": "mount-Grosser_Arber", "country": "D", "name": "Grosser Arber", "mountains": "Bayrischer Wald", "located": {"country": "D", "province": "prov-Germany-3"}, "latitude": "49.1", "longitude": "13", "elevation": "1456"}, {"id": "mount-Zugspitze", "country": "D A", "name": "Zugspitze", "mountains": "Alps", "located": [{"country": "D", "province": "prov-Germany-3"}, {"country": "A", "province": "prov-Austria-7"}], "latitude": "47.42", "longitude": "10.99", "elevation": "2963"}, {"id": "mount-Ecrins", "country": "F", "name": "Barre des Ecrins", "mountains": "Alps", "located": {"country": "F", "province": "prov-France-11"}, "latitude": "44.92", "longitude": "6.36", "elevation": "4101"}, {"id": "mount-Ventoux", "country": "F", "name": "Mont Ventoux", "mountains": "Alps", "located": {"country": "F", "province": "prov-France-104"}, "latitude": "44.18", "longitude": "5.28", "elevation": "1912"}, {"id": "mount-GranParadiso", "country": "I", "name": "Gran Paradiso", "mountains": "Alps", "located": {"country": "I", "province": "prov-Italy-9 prov-Italy-2"}, "latitude": "45.5", "longitude": "7.25", "elevation": "4061"}, {"id": "mount-MontBlanc", "country": "F I", "name": "Mont Blanc", "mountains": "Alps", "located": [{"country": "F", "province": "prov-France-11"}, {"country": "I", "province": "prov-Italy-9"}], "latitude": "45.83", "longitude": "6.86", "elevation": "4808"}, {"id": "mount-GrandCombin", "country": "CH", "name": "Grand Combin", "mountains": "Alps", "located": {"country": "CH", "province": "prov-Switzerland-24"}, "latitude": "45.93", "longitude": "7.30", "elevation": "4314"}, {"id": "mount-Matterhorn", "country": "CH I", "name": "Matterhorn", "mountains": "Alps", "located": [{"country": "CH", "province": "prov-Switzerland-24"}, {"country": "I", "province": "prov-Italy-9"}], "latitude": "45.98", "longitude": "7.66", "elevation": "4478"}, {"id": "mount-MonteRosa", "country": "CH I", "name": "Monte Rosa", "mountains": "Alps", "located": [{"country": "CH", "province": "prov-Switzerland-24"}, {"country": "I", "province": "prov-Italy-9 prov-Italy-10"}], "latitude": "45.93", "longitude": "7.87", "elevation": "4634"}, {"id": "mount-Finsteraarhorn", "country": "CH", "name": "Finsteraarhorn", "mountains": "Alps", "located": {"country": "CH", "province": "prov-Switzerland-5 prov-Switzerland-24"}, "latitude": "46.5", "longitude": "8.1", "elevation": "4274"}, {"id": "mount-PizBernina", "country": "CH I", "name": "Piz Bernina", "mountains": "Alps", "located": [{"country": "CH", "province": "prov-Switzerland-11"}, {"country": "I", "province": "prov-Italy-10"}], "latitude": "46.4", "longitude": "9.9", "elevation": "4048"}, {"id": "mount-Marmolata", "country": "I", "name": "Marmolata", "mountains": "Alps", "located": {"country": "I", "province": "prov-Italy-20 prov-Italy-23"}, "latitude": "46.4", "longitude": "11.85", "elevation": "3343"}, {"id": "mount-Grossglockner", "country": "A", "name": "Grossglockner", "mountains": "Alps", "located": {"country": "A", "province": "prov-Austria-3"}, "latitude": "47.07", "longitude": "12.69", "elevation": "3797"}, {"id": "mount-Hochgolling", "country": "A", "name": "Hochgolling", "mountains": "Alps", "located": {"country": "A", "province": "prov-Austria-8 prov-Austria-9"}, "latitude": "47.3", "longitude": "13.75", "elevation": "2862"}, {"id": "mount-Triglav", "country": "SLO", "name": "Triglav", "mountains": "Alps", "latitude": "46.38", "longitude": "13.83", "elevation": "2864"}, {"id": "mount-GrandBallon", "country": "F", "name": "Grand Ballon", "mountains": "Vosges", "located": {"country": "F", "province": "prov-France-2"}, "latitude": "47.90", "longitude": "7.10", "elevation": "1424"}, {"id": "mount-PuyDeDome", "country": "F", "type": "volcanic", "name": "Puy De Dome", "mountains": "Cevennes", "located": {"country": "F", "province": "prov-France-11"}, "latitude": "45.52", "longitude": "2.81", "elevation": "1465"}, {"id": "mount-PuydeSancy", "country": "F", "type": "volcanic", "name": "Puy de Sancy", "mountains": "Cevennes", "located": {"country": "F", "province": "prov-France-11"}, "latitude": "45.77", "longitude": "2.96", "elevation": "1885"}, {"id": "mount-Mahaia", "country": "E F", "name": "Hiru Erregeen Mahaia", "mountains": "Pyrenees", "located": [{"country": "E", "province": "prov-Spain-6 prov-Spain-16"}, {"country": "F", "province": "prov-France-5"}], "latitude": "42.92", "longitude": "0.74", "elevation": "2424"}, {"id": "mount-Vignemale", "country": "E F", "name": "Vignemale", "mountains": "Pyrenees", "located": [{"country": "E", "province": "prov-Spain-3"}, {"country": "F", "province": "prov-France-77"}], "latitude": "42.8", "longitude": "0.15", "elevation": "3298"}, {"id": "mount-Aneto", "country": "E", "name": "Pico de Aneto", "mountains": "Pyrenees", "located": {"country": "E", "province": "prov-Spain-3"}, "latitude": "42.6", "longitude": "0.65", "elevation": "3404"}, {"id": "mount-Estats", "country": "E", "name": "Pica d'Estats", "mountains": "Pyrenees", "located": {"country": "E", "province": "prov-Spain-11"}, "latitude": "42.67", "longitude": "1.39", "elevation": "3143"}, {"id": "mount-Comapedrosa", "country": "E AND", "name": "Coma Pedrosa", "mountains": "Pyrenees", "located": {"country": "E", "province": "prov-Spain-11"}, "latitude": "42.59", "longitude": "1.46", "elevation": "2944"}, {"id": "mount-Croscat", "country": "E", "type": "volcano", "name": "Croscat", "located": {"country": "E", "province": "prov-Spain-11"}, "latitude": "42.15", "longitude": "2.55", "elevation": "786"}, {"id": "mount-TorredeCerredo", "country": "E", "name": "Torre de Cerredo", "mountains": "Cordillera Cantabrica", "located": {"country": "E", "province": "prov-Spain-4 prov-Spain-9"}, "latitude": "43.2", "longitude": "4.85", "elevation": "2648"}, {"id": "mount-TorreEstrela", "country": "P", "name": "Torre de Estrela", "mountains": "Cordillera Iberica Central", "located": {"country": "P", "province": "prov-Portugal-10"}, "latitude": "40.3", "longitude": "-7.6", "elevation": "1993"}, {"id": "mount-PicoAlmanzor", "country": "E", "name": "Pico de Almanzor", "mountains": "Cordillera Iberica Central", "located": {"country": "E", "province": "prov-Spain-9"}, "latitude": "40.25", "longitude": "-5.3", "elevation": "2592"}, {"id": "mount-Moncayo", "country": "E", "name": "Moncayo", "mountains": "Cordillera Iberica", "located": {"country": "E", "province": "prov-Spain-3 prov-Spain-9"}, "latitude": "41.8", "longitude": "1.85", "elevation": "2313"}, {"id": "mount-Mulhacen", "country": "E", "name": "Mulhacen", "mountains": "Cordillera Betica", "located": {"country": "E", "province": "prov-Spain-2"}, "latitude": "37.05", "longitude": "-3.3", "elevation": "3482"}, {"id": "mount-PuigMajor", "country": "E", "island": "island-Mallorca", "name": "Puig Major", "located": {"country": "E", "province": "prov-Spain-5"}, "latitude": "39.81", "longitude": "2.79", "elevation": "1445"}, {"id": "mount-Gibraltar", "country": "GBZ", "name": "Rock of Gibraltar", "mountains": "Cordillera Betica", "latitude": "36.12", "longitude": "-5.25", "elevation": "426"}, {"id": "mount-Cinto", "country": "F", "island": "island-Corse", "name": "Monte Cinto", "located": {"country": "F", "province": "prov-France-42"}, "latitude": "42.4", "longitude": "8.9", "elevation": "2706"}, {"id": "mount-PuntaMarmora", "country": "I", "island": "island-Sardegna", "name": "Punta La Marmora", "located": {"country": "I", "province": "prov-Italy-111"}, "latitude": "39.97", "longitude": "9.3", "elevation": "1834"}, {"id": "mount-Capanne", "country": "I", "island": "island-Elba", "name": "Monte Capanne", "located": {"country": "I", "province": "prov-Italy-50"}, "latitude": "42.77", "longitude": "10.17", "elevation": "1019"}, {"id": "mount-Cimone", "country": "I", "name": "Monte Cimone", "mountains": "Apennin", "located": {"country": "I", "province": "prov-Italy-41"}, "latitude": "44.19", "longitude": "10.7", "elevation": "2165"}, {"id": "mount-GranSasso", "country": "I", "name": "Corno Grande", "mountains": "Apennin", "located": {"country": "I", "province": "prov-Italy-74"}, "latitude": "42.5", "longitude": "13.55", "elevation": "2912"}, {"id": "mount-Amaro", "country": "I", "name": "Monte Amaro", "mountains": "Apennin", "located": {"country": "I", "province": "prov-Italy-74"}, "latitude": "42.09", "longitude": "14.09", "elevation": "2793"}, {"id": "mount-Albano", "country": "I", "type": "volcanic", "name": "Maschio delle Faete", "mountains": "Colli Albani", "located": {"country": "I", "province": "prov-Italy-68"}, "latitude": "41.74", "longitude": "12.74", "elevation": "956"}, {"id": "mount-Vesuv", "country": "I", "type": "volcano", "last_eruption": "1944-03-18", "name": "Vesuvio", "located": {"country": "I", "province": "prov-Italy-82"}, "latitude": "40.8", "longitude": "14.4", "elevation": "1281"}, {"id": "mount-SerraDolcedorme", "country": "I", "name": "Serra Dolcedorme", "mountains": "Apennin", "located": {"country": "I", "province": "prov-Italy-94 prov-Italy-97"}, "latitude": "39.89", "longitude": "16.21", "elevation": "2267"}, {"id": "mount-Montalto", "country": "I", "name": "Montalto", "mountains": "Apennin", "located": {"country": "I", "province": "prov-Italy-97"}, "latitude": "38.16", "longitude": "15.92", "elevation": "1955"}, {"id": "mount-Etna", "country": "I", "type": "volcano", "island": "island-Sicilia", "name": "Etna", "located": {"country": "I", "province": "prov-Italy-101"}, "latitude": "37.7", "longitude": "15.0", "elevation": "3323"}, {"id": "mount-Carbonara", "country": "I", "island": "island-Sicilia", "name": "Pizzo Carbonara", "located": {"country": "I", "province": "prov-Italy-101"}, "latitude": "37.89", "longitude": "14.025", "elevation": "1979"}, {"id": "mount-Schneekoppe", "country": "CZ PL", "name": "Schneekoppe", "mountains": "Sudety Mountains", "located": [{"country": "CZ", "province": "prov-Czech-6"}, {"country": "PL", "province": "prov-PL-1"}], "latitude": "50.7", "longitude": "15.7", "elevation": "1602"}, {"id": "mount-GerlachovskyStit", "country": "SK", "name": "Gerlachovsky Stit", "mountains": "Beskides", "located": {"country": "SK", "province": "prov-Slovakia-5"}, "latitude": "49.2", "longitude": "20.1", "elevation": "2655"}, {"id": "mount-Kekes", "country": "H", "name": "K\u00e9kes", "mountains": "Matra", "located": {"country": "H", "province": "prov-Hungary-10"}, "latitude": "47.87", "longitude": "20.01", "elevation": "1014"}, {"id": "mount-Howerla", "country": "UA", "name": "Howerla", "mountains": "Carpathians", "located": {"country": "UA", "province": "prov-Ukraine-23 prov-Ukraine-7"}, "latitude": "48.16", "longitude": "25.50", "elevation": "2061"}, {"id": "mount-Pietrosul", "country": "RO", "name": "Pietrosul", "mountains": "Carpathians", "located": {"country": "RO", "province": "prov-Romania-27"}, "latitude": "47.59", "longitude": "24.64", "elevation": "2303"}, {"id": "mount-Moldoveanu", "country": "RO", "name": "Moldoveanu", "mountains": "Carpathians", "located": {"country": "RO", "province": "prov-Romania-4 prov-Romania-10 prov-Romania-35"}, "latitude": "45.6", "longitude": "24.7", "elevation": "2544"}, {"id": "mount-Botew", "country": "BG", "name": "Botew", "mountains": "Balkan", "latitude": "42.72", "longitude": "24.92", "elevation": "2376"}, {"id": "mount-Midzor", "country": "SRB BG", "name": "Mid\u017eor", "mountains": "Balkan", "latitude": "43.39", "longitude": "22.68", "elevation": "2169"}, {"id": "mount-Musala", "country": "BG", "name": "Musala", "mountains": "Rila", "latitude": "42.2", "longitude": "23.6", "elevation": "2925"}, {"id": "mount-Korab", "country": "AL MK", "name": "Korab", "latitude": "41.4", "longitude": "20.3", "elevation": "2751"}, {"id": "mount-Deravica", "country": "KOS", "name": "\u0110eravica", "mountains": "Dinaric Alps", "latitude": "42.53", "longitude": "20.14", "elevation": "2656"}, {"id": "mount-Jezerce", "country": "AL", "name": "Jezerce", "mountains": "Dinaric Alps", "latitude": "42.3", "longitude": "19.4", "elevation": "2694"}, {"id": "mount-BobotovKuk", "country": "MNE", "name": "Bobotov Kuk", "mountains": "Dinaric Alps", "latitude": "43.12", "longitude": "19.04", "elevation": "2522"}, {"id": "mount-Cincar", "country": "BIH", "name": "Cincar", "mountains": "Dinaric Alps", "located": {"country": "BIH", "province": "prov-BIH-1"}, "latitude": "43.90", "longitude": "17.06", "elevation": "2006"}, {"id": "mount-Dinara", "country": "HR", "name": "Dinara", "mountains": "Dinaric Alps", "latitude": "44.06", "longitude": "16.38", "elevation": "1831"}, {"id": "mount-VaganskiVrh", "country": "HR", "name": "Vaganski Vrh", "mountains": "Dinaric Alps", "latitude": "44.37", "longitude": "15.50", "elevation": "1757"}, {"id": "mount-Smolikas", "country": "GR", "name": "Smolikas", "mountains": "Pindos", "located": {"country": "GR", "province": "prov-Greece-7"}, "latitude": "40.1", "longitude": "20.92", "elevation": "2637"}, {"id": "mount-Olymp", "country": "GR", "name": "Olymp", "located": {"country": "GR", "province": "prov-Greece-13 prov-Greece-8"}, "latitude": "40.1", "longitude": "22.35", "elevation": "2917"}, {"id": "mount-Athos", "country": "GR", "name": "Athos", "located": {"country": "GR", "province": "prov-Greece-15"}, "latitude": "40.15", "longitude": "24.35", "elevation": "2033"}, {"id": "mount-Kyllini", "country": "GR", "name": "Kyllini", "located": {"country": "GR", "province": "prov-Greece-11"}, "latitude": "37.94", "longitude": "22.4", "elevation": "2376"}, {"id": "mount-ProfitisIlias", "country": "GR", "name": "Profitis Ilias", "located": {"country": "GR", "province": "prov-Greece-11"}, "latitude": "36.95", "longitude": "22.35", "elevation": "2497"}, {"id": "mount-Enos", "country": "GR", "island": "island-Kefallinia", "name": "Aenos", "located": {"country": "GR", "province": "prov-Greece-6"}, "latitude": "38.14", "longitude": "20.15", "elevation": "1628"}, {"id": "mount-Elati", "country": "GR", "island": "island-Lefkas", "name": ["Elati", "Stavrota"], "located": {"country": "GR", "province": "prov-Greece-6"}, "latitude": "38.72", "longitude": "20.65", "elevation": "1158"}, {"id": "mount-Dirfi", "country": "GR", "island": "island-Euboea", "name": "Dirfi", "located": {"country": "GR", "province": "prov-Greece-12"}, "latitude": "38.63", "longitude": "23.84", "elevation": "1743"}, {"id": "mount-Fengari", "country": "GR", "island": "island-Samothraki", "name": "Fengari", "located": {"country": "GR", "province": "prov-Greece-14"}, "latitude": "40.46", "longitude": "25.56", "elevation": "1611"}, {"id": "mount-Kerkis", "country": "GR", "island": "island-Samos", "name": "Kerkis", "located": {"country": "GR", "province": "prov-Greece-14"}, "latitude": "37.73", "longitude": "26.62", "elevation": "1433"}, {"id": "mount-Pilineo", "country": "GR", "island": "island-Chios", "name": "Pilineo", "located": {"country": "GR", "province": "prov-Greece-14"}, "latitude": "38.56", "longitude": "26.00", "elevation": "1297"}, {"id": "mount-Pramnos", "country": "GR", "island": "island-Ikaria", "name": "Pramnos", "located": {"country": "GR", "province": "prov-Greece-14"}, "latitude": "37.61", "longitude": "26.25", "elevation": "1037"}, {"id": "mount-Attavyros", "country": "GR", "island": "island-Rhodos", "name": "Attavyros", "located": {"country": "GR", "province": "prov-Greece-10"}, "latitude": "36.21", "longitude": "27.86", "elevation": "1215"}, {"id": "mount-Psiloritis", "country": "GR", "island": "island-Crete", "name": "Psiloritis", "mountains": "Crete", "located": {"country": "GR", "province": "prov-Greece-9"}, "latitude": "35.23", "longitude": "24.77", "elevation": "2456"}, {"id": "mount-Olympos", "country": "CY", "island": "island-Cyprus", "name": "Olympos", "mountains": "Troodos", "latitude": "34.9", "longitude": "32.85", "elevation": "1952"}, {"id": "mount-Teide", "country": "E", "type": "volcano", "island": "island-Teneriffa", "last_eruption": "1909-11-18", "name": "Pico de Teide", "mountains": "Canary Islands", "located": {"country": "E", "province": "prov-Spain-7"}, "latitude": "28.3", "longitude": "-16.6", "elevation": "3718"}, {"id": "mount-PicoNieves", "country": "E", "type": "volcanic", "island": "island-Gran_Canaria", "name": "Pico de las Nieves", "mountains": "Canary Islands", "located": {"country": "E", "province": "prov-Spain-7"}, "latitude": "25.95", "longitude": "-15.6", "elevation": "1949"}, {"id": "mount-Malpaso", "country": "E", "type": "volcanic", "island": "island-Hierro", "name": "Pico de Malpaso", "mountains": "Canary Islands", "located": {"country": "E", "province": "prov-Spain-7"}, "latitude": "27.72", "longitude": "-18.04", "elevation": "1501"}, {"id": "mount-Garajonay", "country": "E", "type": "volcanic", "island": "island-Gomera", "name": "Garajonay", "mountains": "Canary Islands", "located": {"country": "E", "province": "prov-Spain-7"}, "latitude": "28.11", "longitude": "-17.25", "elevation": "1487"}, {"id": "mount-RoqueMuchachos", "country": "E", "type": "volcanic", "island": "island-La_Palma", "name": "Roque de los Muchachos", "mountains": "Canary Islands", "located": {"country": "E", "province": "prov-Spain-7"}, "latitude": "28.75", "longitude": "-17.9", "elevation": "2426"}, {"id": "mountain-PicoRuivo", "country": "P", "island": "island-Madeira", "type": "volcanic", "name": "Pico Ruivo", "mountains": "Madeira", "located": {"country": "P", "province": "prov-Portugal-22"}, "latitude": "31", "longitude": "-16", "elevation": "1861"}, {"id": "mountain-Pico", "country": "P", "type": "volcano", "island": "island-Pico", "last_eruption": "1720-01-01", "name": "Pico", "mountains": "Azores", "located": {"country": "P", "province": "prov-Portugal-21"}, "latitude": "38.5", "longitude": "-28.4", "elevation": "2351"}, {"id": "mountain-PicoVara", "country": "P", "type": "volcanic", "island": "island-Sao_Miguel", "name": "Pico da Vara", "mountains": "Azores", "located": {"country": "P", "province": "prov-Portugal-21"}, "latitude": "37.79", "longitude": "-25.22", "elevation": "1105"}, {"id": "mountain-PicoEsperanca", "country": "P", "type": "volcanic", "island": "island-Sao_Jorge", "name": "Pico da Esperan\u00e7a", "mountains": "Azores", "located": {"country": "P", "province": "prov-Portugal-21"}, "latitude": "38.65", "longitude": "-28.08", "elevation": "1053"}, {"id": "mountain-CabecoGordo", "country": "P", "type": "volcano", "island": "island-Faial", "last_eruption": "1958-01-01", "name": "Cabe\u00e7o Gordo", "mountains": "Azores", "located": {"country": "P", "province": "prov-Portugal-21"}, "latitude": "38.58", "longitude": "-28.71", "elevation": "1043"}, {"id": "mountain-SantaBarbara", "country": "P", "type": "volcano", "island": "island-Terceira", "name": "Serra de Santa B\u00e1rbara", "mountains": "Azores", "located": {"country": "P", "province": "prov-Portugal-21"}, "latitude": "38.73", "longitude": "-27.32", "elevation": "1021"}, {"id": "mountain-Fogo", "country": "CV", "type": "volcano", "island": "island-Fogo", "name": "Fogo", "mountains": "Cape Verdes", "latitude": "14.95", "longitude": "-24.4", "elevation": "2829"}, {"id": "mountain-PicoAntonia", "country": "CV", "type": "volcano", "island": "island-Santiago", "name": "Pico da Ant\u00f3nia", "mountains": "Cape Verdes", "latitude": "15.05", "longitude": "-28.63", "elevation": "1394"}, {"id": "mount-Moussa", "country": "MA", "name": "Jebel Moussa", "mountains": "Rif", "located": {"country": "MA", "province": "prov-MA-16"}, "latitude": "35.9", "longitude": "-5.4", "elevation": "842"}, {"id": "mount-Hacho", "country": "CEU", "name": "Monte Hacho", "mountains": "Rif", "latitude": "35.9", "longitude": "-5.3", "elevation": "204"}, {"id": "mount-Tidighine", "country": "MA", "name": "Tidighine", "mountains": "Rif", "located": {"country": "MA", "province": "prov-MA-15 prov-MA-16"}, "latitude": "34.85", "longitude": "-4.5", "elevation": "2456"}, {"id": "mount-Tubkhal", "country": "MA", "name": "Tubkhal", "mountains": "Atlas", "located": {"country": "MA", "province": "prov-MA-4 prov-MA-7"}, "latitude": "31.07", "longitude": "-7.9", "elevation": "4167"}, {"id": "mount-Aissa", "country": "DZ", "name": "Djebel A\u00efssa", "mountains": "Atlas", "latitude": "35.84", "longitude": "0.5", "elevation": "2236"}, {"id": "mount-LallaKhedidja", "country": "DZ", "name": "Lalla Khedidja", "mountains": "Atlas", "latitude": "36.45", "longitude": "4.23", "elevation": "2308"}, {"id": "mount-Chelia", "country": "DZ", "name": "Djebel Ch\u00e9lia", "mountains": "Atlas", "latitude": "35.32", "longitude": "6.64", "elevation": "2328"}, {"id": "mount-Chambi", "country": "TN", "name": "Djebel Chambi", "mountains": "Atlas", "latitude": "35.21", "longitude": "8.68", "elevation": "1544"}, {"id": "mount-Tahat", "country": "DZ", "type": "volcanic", "name": "Tahat", "mountains": "Ahaggar", "latitude": "23.3", "longitude": "5.5", "elevation": "3003"}, {"id": "mount-Bagzane", "country": "RN", "type": "volcanic", "name": ["Idoukal-n-Tagh\u00e8s", "Mont Bagzane"], "mountains": "A\u00efr", "located": {"country": "RN", "province": "prov-RN-1"}, "latitude": "17.82", "longitude": "8.73", "elevation": "2022"}, {"id": "mount-MtGreboun", "country": "RN", "name": "Mont Greboun", "mountains": "A\u00efr", "located": {"country": "RN", "province": "prov-RN-1"}, "latitude": "20.0", "longitude": "8.6", "elevation": "1944"}, {"id": "mount-Emi_Kussi", "country": "TCH", "type": "volcano", "name": "Emi Kussi", "mountains": "Tibesti", "latitude": "19.8", "longitude": "18.55", "elevation": "3445"}, {"id": "mount-Deriba", "country": "SUD", "type": "volcanic", "name": "Deriba Caldera", "mountains": "Jebel Marra", "located": {"country": "SUD", "province": "prov-SUD-18"}, "latitude": "12.95", "longitude": "24.25", "elevation": "3042"}, {"id": "mount-Sinai", "country": "ET", "name": "Mt. Sinai", "mountains": "Sinai", "latitude": "28.53", "longitude": "33.98", "elevation": "2285"}, {"id": "mount-DjebelKatrina", "country": "ET", "name": "Jabal Katrina", "mountains": "Sinai", "latitude": "28.5", "longitude": "33.95", "elevation": "2629"}, {"id": "mount-ShaiybBanat", "country": "ET", "name": "Shaiyb al-Banat", "latitude": "26.98", "longitude": "33.49", "elevation": "2187"}, {"id": "mount-Oda", "country": "SUD", "name": "Mt. Oda", "located": {"country": "SUD", "province": "prov-SUD-1"}, "latitude": "19.9", "longitude": "36.8", "elevation": "2259"}, {"id": "HomboriTondo", "country": "RMM", "name": "Hombori Tondo", "mountains": "Falaise de Bandiagara", "located": {"country": "RMM", "province": "prov-RMM-6"}, "latitude": "15.25", "longitude": "-1.68", "elevation": "1153"}, {"id": "mount-Loura", "country": "RG", "name": "Mt. Loura", "mountains": "Fouta Djallon", "latitude": "12.07", "longitude": "-12.08", "elevation": "1573"}, {"id": "mount-Bintumani", "country": "WAL", "name": "Mt. Bintumani", "latitude": "9.22", "longitude": "-11.11", "elevation": "1945"}, {"id": "mount-Nimba", "country": "RG CI LB", "name": "Mt. Nimba", "located": {"country": "CI", "province": "prov-CI-10"}, "latitude": "7.51", "longitude": "-8.45", "elevation": "1752"}, {"id": "mount-AsoRock", "country": "WAN", "type": "monolith", "name": "Aso Rock", "located": {"country": "WAN", "province": "prov-WAN-2"}, "latitude": "9.05", "longitude": "7.5", "elevation": "400"}, {"id": "mount-ShereHills", "country": "WAN", "name": "Shere Hills", "mountains": "Jos Plateau", "located": {"country": "WAN", "province": "prov-WAN-32"}, "latitude": "9.95", "longitude": "9.05", "elevation": "1829"}, {"id": "mount-ChappalWaddi", "country": "WAN CAM", "type": "volcanic", "name": "Chappal Waddi", "mountains": "Cameroon Line", "located": [{"country": "WAN", "province": "prov-WAN-35"}, {"country": "CAM", "province": "prov-Cameroon-2"}], "latitude": "7.03", "longitude": "11.62", "elevation": "2419"}, {"id": "mount-Oku", "country": "CAM", "type": "volcanic", "name": "Mt. Oku", "mountains": "Cameroon Line", "located": {"country": "CAM", "province": "prov-Cameroon-8"}, "latitude": "6.2", "longitude": "10.52", "elevation": "3011"}, {"id": "mount-Fako", "country": "CAM", "type": "volcano", "name": "Fako", "mountains": "Cameroon Line", "located": {"country": "CAM", "province": "prov-Cameroon-11"}, "latitude": "4.2", "longitude": "9.2", "elevation": "4095"}, {"id": "mount-Toussoro", "country": "RCA", "name": "Mt. Toussoro", "mountains": "Bongo Hills", "latitude": "9.07", "longitude": "23.23", "elevation": "1368"}, {"id": "mount-Basile", "country": "GQ", "island": "island-Bioko", "type": "volcano", "name": "Pico Basile", "mountains": "Cameroon Line", "located": {"country": "GQ", "province": "prov-GQ-1"}, "latitude": "3.5", "longitude": "8.7", "elevation": "3011"}, {"id": "mount-PicoSaoTome", "country": "STP", "island": "island-Sao_Tome", "type": "volcanic", "name": "Pico de Sao Tome", "mountains": "Cameroon Line", "latitude": "0.2", "longitude": "6.6", "elevation": "2024"}, {"id": "mount-QueenMarysPeak", "country": "HELX", "island": "island-TristanDaCunha", "type": "volcano", "name": "Queen Marys Peak", "latitude": "-37.1", "longitude": "-12.3", "elevation": "2062"}, {"id": "mount-MousaAli", "country": "ETH ER DJI", "type": "volcano", "name": "Mousa Ali", "located": {"country": "ETH", "province": "prov-ETH-2"}, "latitude": "12.47", "longitude": "42.4", "elevation": "2021"}, {"id": "mount-Haggier", "country": "YE", "island": "island-Sokotra", "name": ["Jabal Hajhir", "Jabal Haggier"], "latitude": "12.57", "longitude": "54.03", "elevation": "1519"}, {"id": "mount-Shimbiris", "country": "SP", "name": "Shimbiris", "latitude": "10.74", "longitude": "47.23", "elevation": "2460"}, {"id": "mount-Ras_Daschan", "country": "ETH", "type": "volcanic", "name": "Ras Dashen", "mountains": "Ethiopian Highlands", "located": {"country": "ETH", "province": "prov-ETH-3"}, "latitude": "13.2", "longitude": "38.4", "elevation": "4533"}, {"id": "mount-TulluDimtu", "country": "ETH", "name": "Tullu Dimtu", "mountains": "Ethiopian Highlands", "located": {"country": "ETH", "province": "prov-ETH-13"}, "latitude": "6.82", "longitude": "39.82", "elevation": "4389"}, {"id": "mount-Kinyeti", "country": "SSD EAU", "name": "Kinyeti", "mountains": "East African Rift", "located": {"country": "EAU", "province": "prov-EAU-3"}, "latitude": "3.95", "longitude": "32.9", "elevation": "3187"}, {"id": "mount-MtStanley", "country": "EAU ZRE", "name": "Mt. Stanley", "mountains": "East African Rift", "located": [{"country": "ZRE", "province": "prov-zre-13"}, {"country": "EAU", "province": "prov-EAU-4"}], "latitude": "0.4", "longitude": "29.9", "elevation": "5109"}, {"id": "mount-Elgon", "country": "EAK EAU", "type": "volcanic", "name": "Elgon", "mountains": "East African Rift", "located": {"country": "EAU", "province": "prov-EAU-2"}, "latitude": "1.1", "longitude": "34.55", "elevation": "4321"}, {"id": "mount-Kenia", "country": "EAK", "type": "volcanic", "name": "Mt. Kenia", "mountains": "East African Rift", "latitude": "0.15", "longitude": "37.3", "elevation": "5199"}, {"id": "mount-Kilimanscharo", "country": "EAT", "type": "volcano", "name": "Kilimanjaro", "mountains": "East African Rift", "located": {"country": "EAT", "province": "prov-Tanzania-4"}, "latitude": "-3.05", "longitude": "37.35", "elevation": "5895"}, {"id": "mount-Mawenzi", "country": "EAT", "type": "volcano", "name": "Mawenzi", "mountains": "East African Rift", "located": {"country": "EAT", "province": "prov-Tanzania-4"}, "latitude": "-3.1", "longitude": "37.45", "elevation": "5148"}, {"id": "mount-Meru", "country": "EAT", "type": "volcano", "name": "Meru", "mountains": "East African Rift", "located": {"country": "EAT", "province": "prov-Tanzania-3"}, "latitude": "-3.2", "longitude": "36.8", "elevation": "4567"}, {"id": "mount-Karisimbi", "country": "ZRE RWA", "type": "volcano", "name": "Karisimbi", "mountains": "East African Rift", "located": {"country": "ZRE", "province": "prov-zre-13"}, "latitude": "-1.5", "longitude": "29.45", "elevation": "4507"}, {"id": "mount-Heha", "country": "BI", "name": "Mt. Heha", "mountains": "East African Rift", "latitude": "-3.60", "longitude": "29.50", "elevation": "2684"}, {"id": "mount-Mafinga", "country": "Z", "name": "Mafinga", "mountains": "East African Rift", "located": {"country": "Z", "province": "prov-Zambia-7"}, "latitude": "-9.95", "longitude": "33.35", "elevation": "2339"}, {"id": "mount-Sapitwa", "country": "MW", "name": "Sapitwa", "mountains": "East African Rift", "latitude": "-15.95", "longitude": "35.59", "elevation": "3002"}, {"id": "mount-Nyangani", "country": "ZW", "name": "Nyangani", "latitude": "-18.3", "longitude": "32.84", "elevation": "2592"}, {"id": "mount-Binga", "country": "ZW MOC", "name": "Mt. Binga", "located": {"country": "MOC", "province": "prov-Mozambique-5"}, "latitude": "-19.77", "longitude": "33.06", "elevation": "2436"}, {"id": "mount-Namuli", "country": "ZW MOC", "name": "Mt. Namuli", "located": {"country": "MOC", "province": "prov-Mozambique-11"}, "latitude": "-15.37", "longitude": "37.03", "elevation": "2419"}, {"id": "mount-Moco", "country": "ANG", "name": "Moco", "located": {"country": "ANG", "province": "prov-Angola-12"}, "latitude": "-12.46", "longitude": "15.16", "elevation": "2620"}, {"id": "mount-Brandberg", "country": "NAM", "name": "Brandberg", "latitude": "-21.15", "longitude": "14.58", "elevation": "2573"}, {"id": "mount-ThabanaNtlenyana", "country": "LS", "name": "Thabana Ntlenyana", "mountains": "Drakensberge", "latitude": "-29.5", "longitude": "29.3", "elevation": "3482"}, {"id": "mount-Cathkin-Peak", "country": "RSA", "name": "Cathkin Peak", "mountains": "Drakensberge", "located": {"country": "RSA", "province": "prov-South-Africa-5"}, "latitude": "-29.1", "longitude": "29.35", "elevation": "3181"}, {"id": "mount-Tafelberg", "country": "RSA", "name": "Table Mountain", "located": {"country": "RSA", "province": "prov-South-Africa-10"}, "latitude": "-33.96", "longitude": "18.4", "elevation": "1087"}, {"id": "mount-Tsaratanana", "country": "RM", "type": "volcanic", "island": "island-Madagaskar", "name": "Tsaratanana", "latitude": "-14", "longitude": "48.5", "elevation": "2876"}, {"id": "mount-Tsiafajavona", "country": "RM", "type": "volcanic", "island": "island-Madagaskar", "name": "Tsiafajavona", "latitude": "-19.3", "longitude": "47.2", "elevation": "2642"}, {"id": "mount-Andringitra", "country": "RM", "type": "volcanic", "island": "island-Madagaskar", "name": "Andringitra", "latitude": "-22.5", "longitude": "47", "elevation": "2658"}, {"id": "mount-PitonDeNeiges", "country": "REUN", "type": "volcanic", "island": "island-Reunion", "name": "Piton des Neiges", "latitude": "-21.1", "longitude": "55.5", "elevation": "3069"}, {"id": "mount-PitonDeLaFournaise", "country": "REUN", "type": "volcano", "island": "island-Reunion", "name": "Piton de la Fournaise", "latitude": "-21.2", "longitude": "55.7", "elevation": "2631"}, {"id": "mount-Karthala", "country": "COM", "type": "volcano", "island": "island-Gr_Komoro", "name": "Karthala", "latitude": "-11.75", "longitude": "43.35", "elevation": "2361"}, {"id": "mount-Ntringui", "country": "COM", "type": "volcanic", "island": "island-Anjouan", "name": "Ntringui", "latitude": "-12.21", "longitude": "44.42", "elevation": "1595"}, {"id": "mount-RomanKosch", "country": "UA", "name": "Roman Kosch", "mountains": "Crimean Mountains", "located": {"country": "UA", "province": "prov-Ukraine-27"}, "latitude": "44.61", "longitude": "34.25", "elevation": "1545"}, {"id": "mount-Kamen", "country": "R", "name": "Kamen", "mountains": "Putorana Mountains", "located": {"country": "R", "province": "prov-Russia-75"}, "latitude": "69.13", "longitude": "95.07", "elevation": "1701"}, {"id": "mount-Sedova", "country": "R", "island": "island-NowajaSemljaSeverny", "name": "Pik Sedova", "located": {"country": "R", "province": "prov-Russia-5"}, "latitude": "73.45", "longitude": "54.89", "elevation": "1547"}, {"id": "mount-Pervousmotrennaya", "country": "R", "island": "island-NowajaSemljaYuzhny", "name": "Gora Pervousmotrennaya", "located": {"country": "R", "province": "prov-Russia-5"}, "latitude": "72.97", "longitude": "53.22", "elevation": "1342"}, {"id": "mount-Narodnaja", "country": "R", "name": "Narodnaja", "mountains": "Ural", "located": {"country": "R", "province": "prov-Russia-4"}, "latitude": "65.0", "longitude": "60.1", "elevation": "1895"}, {"id": "mount-TulymskiKamen", "country": "R", "name": "Tulymski Kamen", "mountains": "Ural", "located": {"country": "R", "province": "prov-Russia-49"}, "latitude": "61.14", "longitude": "58.93", "elevation": "1496"}, {"id": "mount-Osljanka", "country": "R", "name": "Osljanka", "mountains": "Ural", "located": {"country": "R", "province": "prov-Russia-49"}, "latitude": "59.16", "longitude": "58.55", "elevation": "1119"}, {"id": "mount-Iremel", "country": "R", "name": "Iremel", "mountains": "Ural", "located": {"country": "R", "province": "prov-Russia-46"}, "latitude": "54.5", "longitude": "58.84", "elevation": "1586"}, {"id": "mount-Jamantau", "country": "R", "name": "Jamantau", "mountains": "Ural", "located": {"country": "R", "province": "prov-Russia-46"}, "latitude": "54.25", "longitude": "58.1", "elevation": "1640"}, {"id": "mount-zachwoa", "country": "R", "name": "Zachwoa", "mountains": "Kaukasus", "located": {"country": "R", "province": "prov-Russia-53"}, "latitude": "43.7", "longitude": "40.2", "elevation": "3345"}, {"id": "mount-Elbrus", "country": "R", "type": "volcanic", "name": "Elbrus", "mountains": "Kaukasus", "located": {"country": "R", "province": "prov-Russia-55"}, "latitude": "43.21", "longitude": "42.26", "elevation": "5642"}, {"id": "mount-Dychtau", "country": "R", "name": "Dychtau", "mountains": "Kaukasus", "located": {"country": "R", "province": "prov-Russia-55"}, "latitude": "43.05", "longitude": "43.13", "elevation": "5204"}, {"id": "mount-Schchara", "country": "R GE", "name": "Schchara", "mountains": "Kaukasus", "located": {"country": "R", "province": "prov-Russia-55"}, "latitude": "43.00", "longitude": "43.10", "elevation": "5200"}, {"id": "mount-Kasbek", "country": "R GE", "type": "volcanic", "name": "Kasbek", "mountains": "Kaukasus", "located": {"country": "R", "province": "prov-Russia-57"}, "latitude": "42.42", "longitude": "44.31", "elevation": "5033"}, {"id": "mount-Bazarduzu", "country": "R AZ", "name": "Bazard\u00fcz\u00fc", "mountains": "Kaukasus", "located": {"country": "R", "province": "prov-Russia-53"}, "latitude": "41.22", "longitude": "47.86", "elevation": "4466"}, {"id": "mount-Gamis", "country": "AZ", "name": "Gam\u0131\u015f da\u011f\u0131", "mountains": "Lesser Kaukasus", "latitude": "40.3", "longitude": "46.23", "elevation": "3724"}, {"id": "mount-Aragaz", "country": "ARM", "type": "volcanic", "name": "Aragaz", "mountains": "Lesser Kaukasus", "latitude": "40.52", "longitude": "44.19", "elevation": "4090"}, {"id": "mount-Ararat", "country": "TR", "type": "volcanic", "name": "Ararat", "mountains": "Armenian Highlands", "located": {"country": "TR", "province": "prov-Turkey-5 prov-Turkey-78"}, "latitude": "39.7", "longitude": "44.3", "elevation": "5165"}, {"id": "mount-SuphanDagi", "country": "TR", "type": "volcanic", "name": "S\u00fcphan Da\u011f\u0131", "mountains": "Armenian Highlands", "located": {"country": "TR", "province": "prov-Turkey-17"}, "latitude": "38.93", "longitude": "42.83", "elevation": "4058"}, {"id": "mount-NemrutDagi", "country": "TR", "type": "volcano", "name": "Nemrut Da\u011f\u0131", "mountains": "Armenian Highlands", "located": {"country": "TR", "province": "prov-Turkey-17"}, "latitude": "38.65", "longitude": "42.23", "elevation": "2948"}, {"id": "mount-KackarDagi", "country": "TR", "name": "Ka\u00e7kar Da\u011f\u0131", "mountains": "Pontic Mountains", "located": {"country": "TR", "province": "prov-Turkey-59"}, "latitude": "40.83", "longitude": "41.16", "elevation": "3937"}, {"id": "mount-Uludag", "country": "TR", "name": "Uluda\u011f", "located": {"country": "TR", "province": "prov-Turkey-20"}, "latitude": "40.07", "longitude": "29.22", "elevation": "2543"}, {"id": "mount-ErciyesDagi", "country": "TR", "type": "volcano", "name": "Erciyes Dagi", "located": {"country": "TR", "province": "prov-Turkey-44"}, "latitude": "38.53", "longitude": "35.33", "elevation": "3916"}, {"id": "mount-HasanDagi", "country": "TR", "type": "volcano", "name": "Hasan Dagi", "located": {"country": "TR", "province": "prov-Turkey-6"}, "latitude": "38.12", "longitude": "34.6", "elevation": "3268"}, {"id": "mount-Demirkazik", "country": "TR", "name": "Demirkazik", "mountains": "Taurus", "located": {"country": "TR", "province": "prov-Turkey-57"}, "latitude": "37.8", "longitude": "35.2", "elevation": "3756"}, {"id": "mount-JabalLubnan", "country": "RL", "name": "Qurnat as-Sauda", "mountains": "Mount Lebanon", "latitude": "34.3", "longitude": "36.1", "elevation": "3088"}, {"id": "mount-Hermon", "country": "RL SYR", "name": "Mt. Hermon", "mountains": "Anti-Lebanon Mountains", "located": {"country": "SYR", "province": "prov-SYR-13 prov-SYR-3"}, "latitude": "33.41", "longitude": "35.85", "elevation": "2814"}, {"id": "mount-HarMeron", "country": "IL", "name": "Har Meron", "located": {"country": "IL", "province": "prov-Israel-5"}, "latitude": "33.00", "longitude": "35.42", "elevation": "1208"}, {"id": "mount-HarRamon", "country": "IL", "name": "Har Ramon", "located": {"country": "IL", "province": "prov-Israel-7"}, "latitude": "30.52", "longitude": "34.64", "elevation": "1035"}, {"id": "mount-UmmAdDami", "country": "JOR", "name": "Jabal Umm ad Dami", "mountains": "Hijaz Mountains", "latitude": "29.31", "longitude": "35.43", "elevation": "1845"}, {"id": "mount-JabalLawz", "country": "SA", "name": "Jabal al-Lawz", "mountains": "Hijaz Mountains", "located": {"country": "SA", "province": "prov-SA-13"}, "latitude": "28.66", "longitude": "35.3", "elevation": "2580"}, {"id": "mount-JabalAlQab", "country": "SA", "name": "Jabal Al-qab", "mountains": "Asir Mountains", "located": {"country": "SA", "province": "prov-SA-11"}, "latitude": "20.87", "longitude": "40.74", "elevation": "2512"}, {"id": "mount-JabalSawda", "country": "SA", "name": "Jabal Sawda", "mountains": "Asir Mountains", "located": {"country": "SA", "province": "prov-SA-7"}, "latitude": "18.27", "longitude": "42.37", "elevation": "2985"}, {"id": "mount-JabalNabi", "country": "YE", "name": "Jabal an Nabi Shuayb", "mountains": "Asir Mountains", "latitude": "15.28", "longitude": "43.97", "elevation": "3666"}, {"id": "mount-JebelShams", "country": "OM", "name": "Jebel Shams", "mountains": "Al Hajar Mountains", "latitude": "23.24", "longitude": "57.26", "elevation": "3009"}, {"id": "mount-Damavand", "country": "IR", "type": "volcano", "name": "Damavand", "mountains": "Elburs", "located": {"country": "IR", "province": "prov-Iran-20"}, "latitude": "35.95", "longitude": "52.1", "elevation": "5610"}, {"id": "mount-AlamKuh", "country": "IR", "name": "Alam Kuh", "mountains": "Elburs", "located": {"country": "IR", "province": "prov-Iran-20"}, "latitude": "36.37", "longitude": "50.96", "elevation": "4848"}, {"id": "mount-Sabalan", "country": "IR", "type": "volcanic", "name": "Sabalan", "mountains": "Kurdistan", "located": {"country": "IR", "province": "prov-Iran-3 prov-Iran-26"}, "latitude": "38.3", "longitude": "47.8", "elevation": "4811"}, {"id": "mount-CheekhaDar", "country": "IR IRQ", "name": "Cheekha Dar", "mountains": "Zagros", "located": [{"country": "IR", "province": "prov-Iran-2"}, {"country": "IRQ", "province": "prov-Iraq-19"}], "latitude": "36.77", "longitude": "44.91", "elevation": "3628"}, {"id": "mount-ZardKuh", "country": "IR", "name": "Zard Kuh", "mountains": "Zagros", "located": {"country": "IR", "province": "prov-Iran-7"}, "latitude": "32.35", "longitude": "50.1", "elevation": "4550"}, {"id": "mount-Hazaran", "country": "IR", "name": "Hazaran", "located": {"country": "IR", "province": "prov-Iran-14"}, "latitude": "29.5", "longitude": "57.27", "elevation": "4500"}, {"id": "mount-Taftan", "country": "IR", "type": "volcano", "last_eruption": "1993-04-25", "name": "Taftan", "located": {"country": "IR", "province": "prov-Iran-22"}, "latitude": "28.6", "longitude": "61.13", "elevation": "3941"}, {"id": "mount-JabalShuayb", "country": "YE", "name": "Jabal Shuayb", "latitude": "15.5", "longitude": "44", "elevation": "3760"}, {"id": "mount-GuruShikhar", "country": "IND", "name": "Guru Shikhar", "mountains": "Aravalli Range", "located": {"country": "IND", "province": "prov-India-21"}, "latitude": "24.65", "longitude": "72.78", "elevation": "1722"}, {"id": "mount-Doddabetta", "country": "IND", "name": "Doddabetta", "mountains": "Western Ghats", "located": {"country": "IND", "province": "prov-India-23"}, "latitude": "11.4", "longitude": "76.74", "elevation": "2636"}, {"id": "mount-Anamudi", "country": "IND", "name": "Anamudi", "mountains": "Western Ghats", "located": {"country": "IND", "province": "prov-India-12"}, "latitude": "10.17", "longitude": "77.04", "elevation": "2695"}, {"id": "mount-Dhupgarh", "country": "IND", "name": "Dhupgarh", "mountains": "Satpura Range", "located": {"country": "IND", "province": "prov-India-13"}, "latitude": "22.45", "longitude": "78.33", "elevation": "1350"}, {"id": "mount-ArmaKonda", "country": "IND", "name": "Arma Konda", "mountains": "Eastern Ghats", "located": {"country": "IND", "province": "prov-India-2"}, "latitude": "18.23", "longitude": "82.73", "elevation": "1680"}, {"id": "mount-ShillongPeak", "country": "IND", "name": "Shillong Peak", "mountains": "Khasi Hills", "located": {"country": "IND", "province": "prov-India-16"}, "latitude": "25.55", "longitude": "91.87", "elevation": "1961"}, {"id": "mount-Pidurutalagala", "country": "CL", "island": "island-Sri_Lanka", "name": "Pidurutalagala", "latitude": "7", "longitude": "80.8", "elevation": "2524"}, {"id": "mount-Khuvkhoitun", "country": "R", "type": "volcano", "name": "Khuvkhoitun", "mountains": "Sredinny Range", "located": {"country": "R", "province": "prov-Russia-87"}, "latitude": "57.92", "longitude": "160.67", "elevation": "2616"}, {"id": "mount-KljutschewskajaSopka", "country": "R", "type": "volcano", "name": "Kljutschewskaja Sopka", "located": {"country": "R", "province": "prov-Russia-87"}, "latitude": "56.1", "longitude": "160.6", "elevation": "4750"}, {"id": "mount-Shiveluch", "country": "R", "type": "volcano", "name": "Shiveluch", "located": {"country": "R", "province": "prov-Russia-87"}, "latitude": "56.65", "longitude": "161.36", "elevation": "3307"}, {"id": "mount-Ichinsky", "country": "R", "type": "volcano", "name": "Ichinsky", "mountains": "Sredinny Range", "located": {"country": "R", "province": "prov-Russia-87"}, "latitude": "55.67", "longitude": "157.72", "elevation": "3607"}, {"id": "mount-Koryaksky", "country": "R", "type": "volcano", "name": "Koryaksky", "located": {"country": "R", "province": "prov-Russia-87"}, "latitude": "53.32", "longitude": "158.71", "elevation": "3456"}, {"id": "mount-Chikurachki", "country": "R", "type": "volcano", "island": "island-Paramuschir", "name": "Chikurachki", "located": {"country": "R", "province": "prov-Russia-90"}, "latitude": "50.32", "longitude": "155.45", "elevation": "1816"}, {"id": "mountain-Krenizyn", "country": "R", "type": "volcano", "island": "island-Krenizyn", "name": "Krenizyn", "located": {"country": "R", "province": "prov-Russia-90"}, "latitude": "49.35", "longitude": "154.71", "elevation": "1325"}, {"id": "mount-Pobeda", "country": "R", "name": "Peak Pobeda", "mountains": "Chersky Range", "located": {"country": "R", "province": "prov-Russia-81"}, "latitude": "65.18", "longitude": "146.00", "elevation": "3003"}, {"id": "mount-MusKhaya", "country": "R", "name": "Mus-Khaya", "mountains": "Suntar-Khayata Range", "located": {"country": "R", "province": "prov-Russia-81"}, "latitude": "62.60", "longitude": "140.94", "elevation": "2959"}, {"id": "mount-Lopatin", "country": "R", "island": "island-Sachalin", "name": "Lopatin", "located": {"country": "R", "province": "prov-Russia-90"}, "latitude": "50.85", "longitude": "143.14", "elevation": "1609"}, {"id": "mount-TordokiYani", "country": "R", "name": "Tordoki Yani", "mountains": "Sikhote-Alin", "located": {"country": "R", "province": "prov-Russia-85"}, "latitude": "48.75", "longitude": "138.04", "elevation": "2077"}, {"id": "mount-BAM", "country": "R", "name": "Pik BAM", "mountains": "Stanovoy Highlands", "located": {"country": "R", "province": "prov-Russia-79"}, "latitude": "56.86", "longitude": "117.58", "elevation": "3072"}, {"id": "mount-Zhima", "country": "R", "island": "island-Olkhon", "name": "Zhima", "located": {"country": "R", "province": "prov-Russia-72"}, "latitude": "53.15", "longitude": "107.4", "elevation": "1276"}, {"id": "mount-MonkhSaridag", "country": "R MNG", "name": "M\u00f6nkh Saridag", "mountains": "Sayan Mountains", "located": {"country": "R", "province": "prov-Russia-72"}, "latitude": "51.72", "longitude": "100.61", "elevation": "3491"}, {"id": "mount-Bjelucha", "country": "R KAZ", "name": "Bjelucha", "mountains": "Altai", "located": [{"country": "R", "province": "prov-Russia-64"}, {"country": "KAZ", "province": "prov-Kazakhstan-15"}], "latitude": "49.48", "longitude": "86.4", "elevation": "4506"}, {"id": "mount-KhuitenPeak", "country": "MNG CN", "name": "Kh\u00fciten Peak", "mountains": "Altai", "located": {"country": "CN", "province": "prov-China-28"}, "latitude": "49.15", "longitude": "87.82", "elevation": "4374"}, {"id": "mount-IkhBogd", "country": "MNG", "name": "Ikh Bogd", "mountains": "Gobi-Altai", "latitude": "45.0", "longitude": "100.23", "elevation": "3957"}, {"id": "mount-OtgonTenger", "country": "MNG", "name": "Otgon Tenger", "mountains": "Khangai Range", "latitude": "47.61", "longitude": "97.55", "elevation": "4008"}, {"id": "mount-AsraltKhairkhan", "country": "MNG", "name": "Asralt Khairkhan", "mountains": "Khentii Mountains", "latitude": "48.46", "longitude": "107.41", "elevation": "2799"}, {"id": "mount-Pik_Semjonow", "country": "KGZ", "name": "Pik Semjonow-Tjan-Schanski", "mountains": "Tian Shan", "latitude": "42.52", "longitude": "74.57", "elevation": "4895"}, {"id": "mount-Pik_Talgar", "country": "KAZ", "name": "Pik Talgar", "mountains": "Tian Shan", "located": {"country": "KAZ", "province": "prov-Kazakhstan-2"}, "latitude": "43.12", "longitude": "77.34", "elevation": "4979"}, {"id": "mount-Pik_Manas", "country": "KAZ UZB KGZ", "name": "Pik Manas", "mountains": "Tian Shan", "located": [{"country": "KAZ", "province": "prov-Kazakhstan-19"}, {"country": "UZB", "province": "prov-Uzbekistan-13"}], "latitude": "42.26", "longitude": "70.94", "elevation": "4484"}, {"id": "mount-Pik_Chan-Tengri", "country": "KAZ KGZ CN", "name": "Pik Chan-Tengri", "mountains": "Tian Shan", "located": [{"country": "CN", "province": "prov-China-28"}, {"country": "KAZ", "province": "prov-Kazakhstan-2"}], "latitude": "42.20", "longitude": "80.16", "elevation": "7010"}, {"id": "mount-Pik_Tandykul", "country": "KGZ TAD", "name": "Pik Tandykul", "mountains": "Alai", "located": {"country": "TAD", "province": "prov-Tajikistan-1"}, "latitude": "39.46", "longitude": "71.08", "elevation": "5544"}, {"id": "mount-Tschimtarga", "country": "TAD", "name": "Tschimtarga", "mountains": "Alai", "located": {"country": "TAD", "province": "prov-Tajikistan-2"}, "latitude": "39.19", "longitude": "68.17", "elevation": "5489"}, {"id": "mount-Ayrybaba", "country": "TM UZB", "name": "Ayrybaba", "mountains": "Alai", "located": [{"country": "TM", "province": "prov-Turkmenistan-5"}, {"country": "UZB", "province": "prov-Uzbekistan-12"}], "latitude": "37.79", "longitude": "66.55", "elevation": "3138"}, {"id": "mount-Pik_Pobeda", "country": "CN KGZ", "name": "Pik Pobeda", "mountains": "Tian Shan", "located": {"country": "CN", "province": "prov-China-28"}, "latitude": "42.0", "longitude": "80.1", "elevation": "7439"}, {"id": "mount-Kongur", "country": "CN", "name": "Kongur", "mountains": "Pamir", "located": {"country": "CN", "province": "prov-China-28"}, "latitude": "38.65", "longitude": "75.35", "elevation": "7649"}, {"id": "mount-MuztaghAta", "country": "CN", "name": "Muztagh Ata", "mountains": "Pamir", "located": {"country": "CN", "province": "prov-China-28"}, "latitude": "38.27", "longitude": "75.1", "elevation": "7509"}, {"id": "mount-Pik_Kommunismus", "country": "TAD", "name": "Pik Ismoil Somoni", "mountains": "Pamir", "located": {"country": "TAD", "province": "prov-Tajikistan-6"}, "latitude": "39", "longitude": "72", "elevation": "7495"}, {"id": "mount-Pik_Lenin", "country": "TAD KGZ", "name": "Pik Lenina", "mountains": "Pamir", "located": {"country": "TAD", "province": "prov-Tajikistan-6"}, "latitude": "39.35", "longitude": "72.90", "elevation": "7134"}, {"id": "mount-Pik_Revoluzija", "country": "TAD", "name": "Pik Revoluzija", "mountains": "Pamir", "located": {"country": "TAD", "province": "prov-Tajikistan-6"}, "latitude": "38.3", "longitude": "72.2", "elevation": "6940"}, {"id": "mount-Pik_Moskwa", "country": "TAD", "name": "Pik Moskva", "mountains": "Pamir", "located": {"country": "TAD", "province": "prov-Tajikistan-6"}, "latitude": "39", "longitude": "71.5", "elevation": "6785"}, {"id": "mount-Pik_Karl-Marx", "country": "TAD", "name": "Pik Karl-Marx", "mountains": "Pamir", "located": {"country": "TAD", "province": "prov-Tajikistan-6"}, "latitude": "37.16", "longitude": "72.5", "elevation": "6726"}, {"id": "mount-TirichMir", "country": "PK", "name": "Tirich Mir", "mountains": "Hindukush", "located": {"country": "PK", "province": "prov-PK-6"}, "latitude": "36.25", "longitude": "71.84", "elevation": "7708"}, {"id": "mount-Noshaq", "country": "AFG PK", "name": "Noshaq", "mountains": "Hindukush", "located": {"country": "PK", "province": "prov-PK-6"}, "latitude": "36.43", "longitude": "71.83", "elevation": "7492"}, {"id": "mount-ShahFuladi", "country": "AFG", "name": "Shah Fuladi", "mountains": "Koh-e-Baba", "latitude": "34.64", "longitude": "67.62", "elevation": "4951"}, {"id": "mount-ZarghunGhar", "country": "PK", "name": "Zarghun Ghar", "mountains": "Sulaiman Range", "located": {"country": "PK", "province": "prov-PK-2"}, "latitude": "30.1", "longitude": "67.8", "elevation": "3578"}, {"id": "mount-BaturaSar", "country": "PK", "name": "Batura Sar", "mountains": "Karakorum", "located": {"country": "PK", "province": "prov-PK-5"}, "latitude": "36.51", "longitude": "74.52", "elevation": "7795"}, {"id": "mount-K2", "country": "PK CN", "name": "K2", "mountains": "Karakorum", "located": [{"country": "CN", "province": "prov-China-28"}, {"country": "PK", "province": "prov-PK-5"}], "latitude": "35.9", "longitude": "76.5", "elevation": "8611"}, {"id": "mount-BroadPeak", "country": "PK CN", "name": "Broad Peak", "mountains": "Karakorum", "located": [{"country": "CN", "province": "prov-China-28"}, {"country": "PK", "province": "prov-PK-5"}], "latitude": "35.8", "longitude": "76.6", "elevation": "8051"}, {"id": "mount-GasherbrumI", "country": "PK CN", "name": "Gasherbrum I", "mountains": "Karakorum", "located": [{"country": "CN", "province": "prov-China-28"}, {"country": "PK", "province": "prov-PK-5"}], "latitude": "35.6", "longitude": "76.7", "elevation": "8080"}, {"id": "mount-GasherbrumII", "country": "PK CN", "name": "Gasherbrum II", "mountains": "Karakorum", "located": [{"country": "CN", "province": "prov-China-28"}, {"country": "PK", "province": "prov-PK-5"}], "latitude": "35.75", "longitude": "76.65", "elevation": "8034"}, {"id": "mount-SaltoroKangri", "country": "IND PK", "name": "Saltoro Kangri", "mountains": "Karakorum", "located": [{"country": "PK", "province": "prov-PK-5"}, {"country": "IND", "province": "prov-India-10"}], "latitude": "35.4", "longitude": "76.85", "elevation": "7742"}, {"id": "mount-SaserKangri", "country": "IND", "name": "Saser Kangri", "mountains": "Karakorum", "located": {"country": "IND", "province": "prov-India-10"}, "latitude": "34.86", "longitude": "77.75", "elevation": "7672"}, {"id": "mount-NangaParbat", "country": "PK", "name": "Nanga Parbat", "mountains": "Himalaya", "located": {"country": "PK", "province": "prov-PK-5"}, "latitude": "35.2", "longitude": "74.6", "elevation": "8125"}, {"id": "mount-NunKun", "country": "IND", "name": "Nun Kun", "mountains": "Himalaya", "located": {"country": "IND", "province": "prov-India-10"}, "latitude": "35.2", "longitude": "74.6", "elevation": "7135"}, {"id": "mount-NandaDevi", "country": "IND", "name": "Nanda Devi", "mountains": "Himalaya", "located": {"country": "IND", "province": "prov-India-38"}, "latitude": "33.97", "longitude": "76.02", "elevation": "7816"}, {"id": "mount-GurlaMandhata", "country": "CN", "name": "Gurla Mandhata", "mountains": "Himalaya", "located": {"country": "CN", "province": "prov-China-29"}, "latitude": "30.44", "longitude": "81.3", "elevation": "7694"}, {"id": "mount-Dhaulagiri", "country": "NEP", "name": "Dhaulagiri", "mountains": "Himalaya", "latitude": "28.7", "longitude": "83.5", "elevation": "8167"}, {"id": "mount-Annapurna", "country": "NEP", "name": "Annapurna", "mountains": "Himalaya", "latitude": "28.6", "longitude": "83.8", "elevation": "8091"}, {"id": "mount-Manaslu", "country": "NEP", "name": "Manaslu", "mountains": "Himalaya", "latitude": "28.55", "longitude": "84.6", "elevation": "8163"}, {"id": "mount-Shishapangma", "country": "CN", "name": "Shishapangma", "mountains": "Himalaya", "located": {"country": "CN", "province": "prov-China-29"}, "latitude": "28.55", "longitude": "85.8", "elevation": "8027"}, {"id": "mount-ChoOyu", "country": "CN NEP", "name": "Cho Oyu", "mountains": "Himalaya", "located": {"country": "CN", "province": "prov-China-29"}, "latitude": "28.35", "longitude": "86.65", "elevation": "8188"}, {"id": "mount-Mount_Everest", "country": "CN NEP", "name": "Mt. Everest", "mountains": "Himalaya", "located": {"country": "CN", "province": "prov-China-29"}, "latitude": "28", "longitude": "86.9", "elevation": "8848"}, {"id": "mount-Lhotse", "country": "CN NEP", "name": "Lhotse", "mountains": "Himalaya", "located": {"country": "CN", "province": "prov-China-29"}, "latitude": "28", "longitude": "86.9", "elevation": "8516"}, {"id": "mount-Makalu", "country": "CN NEP", "name": "Makalu", "mountains": "Himalaya", "located": {"country": "CN", "province": "prov-China-29"}, "latitude": "27.9", "longitude": "87.1", "elevation": "8485"}, {"id": "mount-Kangchendzonga", "country": "NEP IND", "name": "Kangchendzonga", "mountains": "Himalaya", "located": {"country": "IND", "province": "prov-India-22"}, "latitude": "27.7", "longitude": "88.1", "elevation": "8586"}, {"id": "mount-GangkharPuensum", "country": "BHT", "name": "Gangkhar Puensum", "mountains": "Himalaya", "latitude": "28.05", "longitude": "90.45", "elevation": "7570"}, {"id": "mount-NamchaBarwa", "country": "CN", "name": "Namcha Barwa", "mountains": "Himalaya", "located": {"country": "CN", "province": "prov-China-29"}, "latitude": "29.63", "longitude": "95.05", "elevation": "7782"}, {"id": "mount-Kailash", "country": "CN", "name": "Kailash", "mountains": "Transhimalaya", "located": {"country": "CN", "province": "prov-China-29"}, "latitude": "31.1", "longitude": "81.3", "elevation": "6638"}, {"id": "mount-Nyainqentanglha", "country": "CN", "name": "Nyainq\u00eantanglha", "mountains": "Transhimalaya", "located": {"country": "CN", "province": "prov-China-29"}, "latitude": "30.37", "longitude": "90.58", "elevation": "7162"}, {"id": "mount-LiushiShan", "country": "CN", "name": "Liushi Shan", "mountains": "Kunlun", "located": {"country": "CN", "province": "prov-China-28 prov-China-29"}, "latitude": "35.3", "longitude": "80.9", "elevation": "7167"}, {"id": "mount-UlughMuztag", "country": "CN", "name": "Ulugh Muztag", "mountains": "Kunlun", "located": {"country": "CN", "province": "prov-China-28 prov-China-29"}, "latitude": "36.4", "longitude": "87.4", "elevation": "6973"}, {"id": "mount-BukadabanFeng", "country": "CN", "name": "Bukadaban Feng", "mountains": "Kunlun", "located": {"country": "CN", "province": "prov-China-17 prov-China-28"}, "latitude": "36.02", "longitude": "90.85", "elevation": "6860"}, {"id": "mount-SulamutagFeng", "country": "CN", "name": "Sulamutag Feng", "mountains": "Altyn-Tagh", "located": {"country": "CN", "province": "prov-China-28"}, "latitude": "37.92", "longitude": "87.4", "elevation": "6245"}, {"id": "AltunShanPeak", "country": "CN", "name": "Altun Shan Peak", "mountains": "Altyn-Tagh", "located": {"country": "CN", "province": "prov-China-4"}, "latitude": "39.25", "longitude": "93.70", "elevation": "5830"}, {"id": "mount-QilianShanPeak", "country": "CN", "name": "Qilian Shan Peak", "mountains": "Qiliang Shan", "located": {"country": "CN", "province": "prov-China-4"}, "latitude": "39.2", "longitude": "98.53", "elevation": "5547"}, {"id": "mount-Kangzegyai", "country": "CN", "name": "Kangzegyai", "mountains": "Qiliang Shan", "located": {"country": "CN", "province": "prov-China-17"}, "latitude": "38.5", "longitude": "97.72", "elevation": "5808"}, {"id": "mount-Geladaindong", "country": "CN", "name": "Geladaindong", "mountains": "Tanggula Shan", "located": {"country": "CN", "province": "prov-China-17 prov-China-29"}, "latitude": "33.5", "longitude": "91.16", "elevation": "6621"}, {"id": "mount-Siguniang", "country": "CN", "name": "Siguniang Shan", "mountains": "Qionglai Shan", "located": {"country": "CN", "province": "prov-China-21"}, "latitude": "31.1", "longitude": "102.9", "elevation": "6250"}, {"id": "mount-GonggaShan", "country": "CN", "name": "Gongga Shan", "mountains": "Hengduan Shan", "located": {"country": "CN", "province": "prov-China-21"}, "latitude": "29.6", "longitude": "101.88", "elevation": "7556"}, {"id": "mount-Kawagarbo", "country": "CN", "name": "Kawagarbo", "mountains": "Hengduan Shan", "located": {"country": "CN", "province": "prov-China-22 prov-China-29"}, "latitude": "28.44", "longitude": "98.68", "elevation": "6740"}, {"id": "mount-Shanzidou", "country": "CN", "name": "Shanzidou", "mountains": "Hengduan Shan", "located": {"country": "CN", "province": "prov-China-22"}, "latitude": "27.1", "longitude": "100.17", "elevation": "5596"}, {"id": "mount-HkakaboRazi", "country": "MYA", "name": "Hkakabo Razi", "mountains": "Hengduan Shan", "located": {"country": "MYA", "province": "prov-Burma-10"}, "latitude": "28.33", "longitude": "97.53", "elevation": "5881"}, {"id": "mount-Saramati", "country": "IND MYA", "name": "Saramati", "mountains": "Patkai Mountains", "located": [{"country": "MYA", "province": "prov-Burma-7"}, {"country": "IND", "province": "prov-India-18"}], "latitude": "25.74", "longitude": "95.02", "elevation": "3826"}, {"id": "mount-NatMaTaung", "country": "MYA", "name": "Nat Ma Taung", "mountains": "Arakan Mountains", "located": {"country": "MYA", "province": "prov-Burma-9"}, "latitude": "21.23", "longitude": "93.9", "elevation": "3070"}, {"id": "mount-Daxue", "country": "CN", "name": "Daxue Mountain", "mountains": "Shan Highlands", "located": {"country": "CN", "province": "prov-China-22"}, "latitude": "24.11", "longitude": "99.64", "elevation": "3504"}, {"id": "mount-LoiLeng", "country": "MYA", "name": "Loi Leng", "mountains": "Shan Highlands", "located": {"country": "MYA", "province": "prov-Burma-15"}, "latitude": "22.65", "longitude": "98.07", "elevation": "2651"}, {"id": "mount-DoiInthanon", "country": "THA", "name": "Doi Inthanon", "mountains": "Shan Highlands", "latitude": "18.59", "longitude": "98.59", "elevation": "2565"}, {"id": "mount-MyinmoletkatTaung", "country": "MYA", "name": "Myinmoletkat Taung", "mountains": "Tenasserim Range", "located": {"country": "MYA", "province": "prov-Burma-8"}, "latitude": "13.47", "longitude": "98.70", "elevation": "2072"}, {"id": "mount-KhaoLuang", "country": "THA", "name": "Khao Luang", "mountains": "Tenasserim Range", "latitude": "8.50", "longitude": "99.73", "elevation": "1780"}, {"id": "mount-Tahan", "country": "MAL", "name": "Tahan", "mountains": "Tenasserim Range", "located": {"country": "MAL", "province": "prov-Malaysia-4 prov-Malaysia-7"}, "latitude": "4", "longitude": "108", "elevation": "2190"}, {"id": "mount-PhnomAural", "country": "K", "name": "Phnom Aural", "mountains": "Cardamom Mountains", "latitude": "12.03", "longitude": "104.27", "elevation": "1813"}, {"id": "mount-Fansipan", "country": "VN", "name": "Fansipan", "mountains": "Ailao Shan", "located": {"country": "VN", "province": "prov-VN-1"}, "latitude": "22.3", "longitude": "103.77", "elevation": "3143"}, {"id": "mount-PhuXaiLaiLeng", "country": "LAO VN", "name": "Phu Xai Lai Leng", "mountains": "Annamite Range", "located": {"country": "VN", "province": "prov-VN-3"}, "latitude": "19.2", "longitude": "104.18", "elevation": "2720"}, {"id": "mount-PhouBia", "country": "LAO", "name": "Phou Bia", "mountains": "Annamite Range", "latitude": "18.98", "longitude": "103.15", "elevation": "2819"}, {"id": "mount-NgocLinh", "country": "VN", "name": "Ng\u1ecdc Linh", "mountains": "Annamite Range", "located": {"country": "VN", "province": "prov-VN-4"}, "latitude": "15.07", "longitude": "107.98", "elevation": "2598"}, {"id": "mount-ChuYangSin", "country": "VN", "name": "Ch\u01b0 Yang Sin", "mountains": "Annamite Range", "located": {"country": "VN", "province": "prov-VN-4"}, "latitude": "12.40", "longitude": "108.43", "elevation": "2405"}, {"id": "mount-Asahi", "country": "J", "type": "volcanic", "island": "island-Hokkaido", "name": "Asahi-Dake", "located": {"country": "J", "province": "prov-Japan-3"}, "latitude": "43.65", "longitude": "142.85", "elevation": "2290"}, {"id": "mount-Iwate", "country": "J", "island": "island-Honshu", "type": "volcano", "name": "Iwate", "located": {"country": "J", "province": "prov-Japan-6"}, "latitude": "39.85", "longitude": "141.00", "elevation": "2038"}, {"id": "mount-Hotaka", "country": "J", "island": "island-Honshu", "name": "Hotaka-Dake", "mountains": "Hida Mountains", "located": {"country": "J", "province": "prov-Japan-25 prov-Japan-26"}, "latitude": "36.3", "longitude": "137.65", "elevation": "3190"}, {"id": "mount-Kita", "country": "J", "island": "island-Honshu", "name": "Kita-Dake", "located": {"country": "J", "province": "prov-Japan-24"}, "latitude": "35.67", "longitude": "138.24", "elevation": "3193"}, {"id": "mount-Haku", "country": "J", "island": "island-Honshu", "type": "volcano", "name": "Haku-San", "located": {"country": "J", "province": "prov-Japan-22 prov-Japan-23 prov-Japan-26"}, "latitude": "36.15", "longitude": "136.76", "elevation": "2702"}, {"id": "mount-Fuji", "country": "J", "type": "volcano", "island": "island-Honshu", "name": "Fuji-San", "located": {"country": "J", "province": "prov-Japan-24 prov-Japan-27"}, "latitude": "35.35", "longitude": "138.7", "elevation": "3776"}, {"id": "mount-Daisen", "country": "J", "island": "island-Honshu", "type": "volcano", "name": "Daisen", "located": {"country": "J", "province": "prov-Japan-38"}, "latitude": "35.36", "longitude": "133.54", "elevation": "1729"}, {"id": "mount-Ishizuchi", "country": "J", "island": "island-Shikoku", "type": "volcanic", "name": "Ishizuchi-San", "located": {"country": "J", "province": "prov-Japan-46"}, "latitude": "33.76", "longitude": "133.1", "elevation": "1982"}, {"id": "mount-Sobo", "country": "J", "island": "island-Kyushu", "type": "volcanic", "name": "Sobo-San", "located": {"country": "J", "province": "prov-Japan-53"}, "latitude": "32.82", "longitude": "131.34", "elevation": "1756"}, {"id": "mount-Hallasan", "country": "ROK", "island": "island-Cheju", "type": "volcano", "name": "Halla-San", "latitude": "33.35", "longitude": "126.15", "elevation": "1950"}, {"id": "mount-Jirisan", "country": "ROK", "island": "island-Cheju", "name": "Jirisan", "latitude": "35.33", "longitude": "127.72", "elevation": "1915"}, {"id": "mount-Seoraksan", "country": "ROK", "name": "Seoraksan", "mountains": "Taebaek", "latitude": "38.12", "longitude": "128.47", "elevation": "1708"}, {"id": "mount-Kumgangsan", "country": "NOK", "name": "Kumgangsan", "mountains": "Taebaek", "latitude": "38.66", "longitude": "128.10", "elevation": "1638"}, {"id": "mount-ChangbaiShan", "country": "CN NOK", "name": ["Changbai Shan", "Baekdu"], "mountains": "Changbai Shan", "located": {"country": "CN", "province": "prov-China-15"}, "latitude": "42", "longitude": "128.1", "elevation": "2744"}, {"id": "mount-HuaboShan", "country": "CN", "name": "Huabo Shan", "mountains": "Qian Shan", "located": {"country": "CN", "province": "prov-China-16"}, "latitude": "41.11", "longitude": "125.04", "elevation": "1336"}, {"id": "mount-Wuling", "country": "CN", "name": "Wuling Shan", "mountains": "Yan Shan", "located": {"country": "CN", "province": "prov-China-31 prov-China-8"}, "latitude": "40.62", "longitude": "117.64", "elevation": "2116"}, {"id": "mount-Xiaowutai", "country": "CN", "name": "Wutai Shan", "located": {"country": "CN", "province": "prov-China-20"}, "latitude": "39.08", "longitude": "113.55", "elevation": "3061"}, {"id": "mount-Helan", "country": "CN", "name": "Helan Shan", "mountains": "Helan Shan", "located": {"country": "CN", "province": "prov-China-26 prov-China-27"}, "latitude": "38.8", "longitude": "105.9", "elevation": "3556"}, {"id": "mount-YuhuangDing", "country": "CN", "name": "Yuhuang Ding", "mountains": "Tai Shan", "located": {"country": "CN", "province": "prov-China-19"}, "latitude": "36.25", "longitude": "117.1", "elevation": "1532"}, {"id": "mount-HuaShan", "country": "CN", "name": "Hua Shan", "mountains": "Qin Ling", "located": {"country": "CN", "province": "prov-China-18"}, "latitude": "34.5", "longitude": "110.1", "elevation": "2155"}, {"id": "mount-TaibaiShan", "country": "CN", "name": "Taibai Shan", "mountains": "Qin Ling", "located": {"country": "CN", "province": "prov-China-18"}, "latitude": "33.95", "longitude": "107.75", "elevation": "3750"}, {"id": "mount-ShennongDeng", "country": "CN", "name": "Shennong Deng", "mountains": "Daba Shan", "located": {"country": "CN", "province": "prov-China-11"}, "latitude": "31.6", "longitude": "110.5", "elevation": "3105"}, {"id": "mount-TianzhuShan", "country": "CN", "name": "Tianzhu Shan", "mountains": "Dabie Shan", "located": {"country": "CN", "province": "prov-China-2"}, "latitude": "31.05", "longitude": "116.2", "elevation": "1760"}, {"id": "mount-LianHuaFeng", "country": "CN", "name": "Lian Hua Feng", "mountains": "Huang Shan", "located": {"country": "CN", "province": "prov-China-2"}, "latitude": "30.07", "longitude": "118.10", "elevation": "1864"}, {"id": "mount-JinfoShan", "country": "CN", "name": "Jinfo Shan", "mountains": "Dalou Shan", "located": {"country": "CN", "province": "prov-China-34"}, "latitude": "29.06", "longitude": "107.3", "elevation": "2238"}, {"id": "mount-FanjingShan", "country": "CN", "name": "Fanjing Shan", "mountains": "Wuling Shanmai", "located": {"country": "CN", "province": "prov-China-3 prov-China-14"}, "latitude": "27.9", "longitude": "108.7", "elevation": "2570"}, {"id": "mount-HuanggangShan", "country": "CN", "name": "Huanggang Shan", "mountains": "Wuyi Shan", "located": {"country": "CN", "province": "prov-China-6"}, "latitude": "27.9", "longitude": "117.8", "elevation": "2572"}, {"id": "mount-Huangmaojian", "country": "CN", "name": "Huangmaojian", "mountains": "Wuyi Shan", "located": {"country": "CN", "province": "prov-China-23"}, "latitude": "27.9", "longitude": "119.2", "elevation": "1930"}, {"id": "mount-KittenMountain", "country": "CN", "name": "Kitten Mountain", "mountains": "Nanling", "located": {"country": "CN", "province": "prov-China-25"}, "latitude": "25.8", "longitude": "110.33", "elevation": "2142"}, {"id": "mount-Shikengkong", "country": "CN", "name": "Shikengkong", "mountains": "Nanling", "located": {"country": "CN", "province": "prov-China-5 prov-China-12"}, "latitude": "24.9", "longitude": "113.0", "elevation": "1902"}, {"id": "mount-WuzhiShan", "country": "CN", "island": "island-Hainan", "name": "Wuzhi Shan", "located": {"country": "CN", "province": "prov-China-7"}, "latitude": "18.72", "longitude": "109.73", "elevation": "1840"}, {"id": "mount-YuShan", "country": "RC", "island": "island-Taiwan", "name": "Yu Shan", "latitude": "23.5", "longitude": "121", "elevation": "3950"}, {"id": "mount-Sicapo", "country": "RP", "island": "island-Luzon", "name": "Sicapo", "located": {"country": "RP", "province": "prov-RP-1"}, "latitude": "18.01", "longitude": "120.94", "elevation": "2360"}, {"id": "mount-Pulag", "country": "RP", "island": "island-Luzon", "name": "Pulag", "located": {"country": "RP", "province": "prov-RP-1 prov-RP-14"}, "latitude": "16.58", "longitude": "120.88", "elevation": "2922"}, {"id": "mount-Tapulao", "country": "RP", "island": "island-Luzon", "name": "Tapulao", "located": {"country": "RP", "province": "prov-RP-3"}, "latitude": "15.48", "longitude": "120.12", "elevation": "2037"}, {"id": "mount-Pinatubo", "country": "RP", "type": "volcano", "island": "island-Luzon", "last_eruption": "1991-06-15", "name": "Pinatubo", "located": {"country": "RP", "province": "prov-RP-3"}, "latitude": "15.14", "longitude": "120.3", "elevation": "1486"}, {"id": "mount-Taal", "country": "RP", "type": "volcano", "island": "island-TaalVolcanoIsland", "name": "Taal", "located": {"country": "RP", "province": "prov-RP-4"}, "latitude": "14.00", "longitude": "121.00", "elevation": "311"}, {"id": "mount-Banahao", "country": "RP", "type": "volcano", "island": "island-Luzon", "name": "Banahao", "located": {"country": "RP", "province": "prov-RP-4"}, "latitude": "14.07", "longitude": "121.49", "elevation": "2170"}, {"id": "mount-Mayon", "country": "RP", "type": "volcano", "island": "island-Luzon", "last_eruption": "2014-09-18", "name": "Mayon", "located": {"country": "RP", "province": "prov-RP-5"}, "latitude": "13.25", "longitude": "123.7", "elevation": "2463"}, {"id": "mount-Halcon", "country": "RP", "island": "island-Mindoro", "name": "Mt. Halcon", "located": {"country": "RP", "province": "prov-RP-17"}, "latitude": "13.25", "longitude": "121.0", "elevation": "2586"}, {"id": "mount-GuitingGuiting", "country": "RP", "island": "island-Sibuyan", "name": "Mt. Guiting-Guiting", "located": {"country": "RP", "province": "prov-RP-17"}, "latitude": "12.41", "longitude": "122.57", "elevation": "2058"}, {"id": "mount-Madias", "country": "RP", "island": "island-Panay", "name": "Madias", "located": {"country": "RP", "province": "prov-RP-6"}, "latitude": "11.4", "longitude": "122.2", "elevation": "2117"}, {"id": "mount-Kanlaon", "country": "RP", "type": "volcano", "island": "island-Negros", "name": "Kanlaon", "located": {"country": "RP", "province": "prov-RP-6 prov-RP-7"}, "latitude": "10.4", "longitude": "123.1", "elevation": "2435"}, {"id": "mount-Osmena", "country": "RP", "type": "volcano", "island": "island-Cebu", "name": "Osme\u00f1a Peak", "located": {"country": "RP", "province": "prov-RP-7"}, "latitude": "9.83", "longitude": "123.45", "elevation": "1013"}, {"id": "mount-Majuyag", "country": "RP", "type": "volcano", "island": "island-Leyte", "name": "Majuyag", "located": {"country": "RP", "province": "prov-RP-8"}, "latitude": "11.01", "longitude": "124.81", "elevation": "1303"}, {"id": "mount-Mantalingajan", "country": "RP", "island": "island-Palawan", "name": "Mantalingajan", "located": {"country": "RP", "province": "prov-RP-17"}, "latitude": "9.7", "longitude": "118.4", "elevation": "2085"}, {"id": "mount-Apo", "country": "RP", "type": "volcanic", "island": "island-Mindanao", "name": "Mt. Apo", "located": {"country": "RP", "province": "prov-RP-11 prov-RP-12"}, "latitude": "7.0", "longitude": "125.25", "elevation": "2954"}, {"id": "mount-Dulang", "country": "RP", "island": "island-Mindanao", "name": "Dulang-dulang", "located": {"country": "RP", "province": "prov-RP-10"}, "latitude": "8.1", "longitude": "124.92", "elevation": "2941"}, {"id": "mount-Tagubud", "country": "RP", "island": "island-Mindanao", "name": "Tagubud", "located": {"country": "RP", "province": "prov-RP-11"}, "latitude": "7.44", "longitude": "126.22", "elevation": "2670"}, {"id": "mount-Malindang", "country": "RP", "island": "island-Mindanao", "type": "volcano", "name": "Malindang", "located": {"country": "RP", "province": "prov-RP-11"}, "latitude": "8.22", "longitude": "122.63", "elevation": "2404"}, {"id": "mount-Kinabalu", "country": "MAL", "island": "island-Borneo", "type": "granite", "name": "Kinabalu", "mountains": "Crocker Range", "located": {"country": "MAL", "province": "prov-Malaysia-11"}, "latitude": "7.44", "longitude": "126.22", "elevation": "4096"}, {"id": "mount-Murud", "country": "MAL", "island": "island-Borneo", "name": "Murud", "mountains": "Kelabit Highlands", "located": {"country": "MAL", "province": "prov-Malaysia-12"}, "latitude": "3.90", "longitude": "115.32", "elevation": "2423"}, {"id": "mount-Siho", "country": "RI", "island": "island-Borneo", "name": "Siho", "mountains": "Iran Mountains", "located": {"country": "RI", "province": "prov-RI-23"}, "latitude": "2.62", "longitude": "115.57", "elevation": "2574"}, {"id": "mount-Mantam", "country": "RI", "island": "island-Borneo", "name": "Mantam", "mountains": "Iran Mountains", "located": {"country": "RI", "province": "prov-RI-34"}, "latitude": "1.69", "longitude": "115.52", "elevation": "2467"}, {"id": "mount-Liangpran", "country": "RI", "island": "island-Borneo", "name": ["Bukit Batubrok", "Liangpran"], "mountains": "M\u00fcller-Schwaner Range", "located": {"country": "RI", "province": "prov-RI-23"}, "latitude": "1.07", "longitude": "114.6", "elevation": "2240"}, {"id": "mount-Raya", "country": "RI", "island": "island-Borneo", "name": "Bukit Raya", "mountains": "M\u00fcller-Schwaner Range", "located": {"country": "RI", "province": "prov-RI-20 prov-RI-21"}, "latitude": "-0.67", "longitude": "112.68", "elevation": "2278"}, {"id": "mount-Besar", "country": "RI", "island": "island-Borneo", "name": "Besar", "mountains": "Meratus Mountains", "located": {"country": "RI", "province": "prov-RI-22"}, "latitude": "-2.71", "longitude": "115.62", "elevation": "1892"}, {"id": "mount-SeulawatAgam", "country": "RI", "type": "volcano", "island": "island-Sumatra", "name": "Seulawah Agam", "mountains": "Barisan Mountains", "located": {"country": "RI", "province": "prov-RI-1"}, "latitude": "5.45", "longitude": "95.65", "elevation": "1810"}, {"id": "mount-Geureudong", "country": "RI", "type": "volcano", "island": "island-Sumatra", "name": "Geureudong", "mountains": "Barisan Mountains", "located": {"country": "RI", "province": "prov-RI-1"}, "latitude": "4.81", "longitude": "96.82", "elevation": "2885"}, {"id": "mount-Leuser", "country": "RI", "island": "island-Sumatra", "name": "Leuser", "mountains": "Barisan Mountains", "located": {"country": "RI", "province": "prov-RI-1"}, "latitude": "3.74", "longitude": "97.15", "elevation": "3466"}, {"id": "mount-Sinabung", "country": "RI", "type": "volcano", "island": "island-Sumatra", "last_eruption": "2016-05-22", "name": "Sinabung", "mountains": "Barisan Mountains", "located": {"country": "RI", "province": "prov-RI-2"}, "latitude": "3.17", "longitude": "98.39", "elevation": "2460"}, {"id": "mount-Samosir", "country": "RI", "type": "volcanic", "island": "island-Samosir", "name": "Samosir Hill", "mountains": "Barisan Mountains", "located": {"country": "RI", "province": "prov-RI-2"}, "latitude": "2.64", "longitude": "98.83", "elevation": "1630"}, {"id": "mount-Toba", "country": "RI", "type": "volcanic", "island": "island-Sumatra", "name": "Toba Caldera", "mountains": "Barisan Mountains", "located": {"country": "RI", "province": "prov-RI-2"}, "latitude": "2.59", "longitude": "99.08", "elevation": "2170"}, {"id": "mount-Talakmau", "country": "RI", "type": "volcano", "island": "island-Sumatra", "name": "Talakmau", "mountains": "Barisan Mountains", "located": {"country": "RI", "province": "prov-RI-3"}, "latitude": "0.08", "longitude": "99.99", "elevation": "2919"}, {"id": "mount-Marapi", "country": "RI", "type": "volcano", "island": "island-Sumatra", "name": "Marapi", "mountains": "Barisan Mountains", "located": {"country": "RI", "province": "prov-RI-3"}, "latitude": "-0.37", "longitude": "100.47", "elevation": "2891"}, {"id": "mount-Kerinci", "country": "RI", "type": "volcano", "island": "island-Sumatra", "name": "Kerinci", "mountains": "Barisan Mountains", "located": {"country": "RI", "province": "prov-RI-3"}, "latitude": "-1.7", "longitude": "101.26", "elevation": "3805"}, {"id": "mount-Masurai", "country": "RI", "type": "volcano", "island": "island-Sumatra", "name": "Masurai", "mountains": "Barisan Mountains", "located": {"country": "RI", "province": "prov-RI-5"}, "latitude": "-2.50", "longitude": "101.86", "elevation": "2933"}, {"id": "mount-Dempo", "country": "RI", "type": "volcano", "island": "island-Sumatra", "name": "Dempo", "mountains": "Barisan Mountains", "located": {"country": "RI", "province": "prov-RI-6"}, "latitude": "-4.01", "longitude": "103.13", "elevation": "3173"}, {"id": "mount-Rajabasa", "country": "RI", "type": "volcano", "island": "island-Sumatra", "name": "Rajabasa", "mountains": "Barisan Mountains", "located": {"country": "RI", "province": "prov-RI-8"}, "latitude": "-5.79", "longitude": "105.62", "elevation": "1281"}, {"id": "mount-Krakatau", "country": "RI", "type": "volcano", "island": "island-Krakatau", "last_eruption": "2018-12-25", "name": "Krakatau", "located": {"country": "RI", "province": "prov-RI-8"}, "latitude": "-6.1", "longitude": "105.4", "elevation": "813"}, {"id": "mount-Karang", "country": "RI", "type": "volcano", "island": "island-Java", "name": "Karang", "located": {"country": "RI", "province": "prov-RI-16"}, "latitude": "-6.27", "longitude": "106.05", "elevation": "1778"}, {"id": "mount-Gede", "country": "RI", "type": "volcano", "island": "island-Java", "name": "Gede", "located": {"country": "RI", "province": "prov-RI-12"}, "latitude": "-6.78", "longitude": "106.98", "elevation": "2958"}, {"id": "mount-Ciremai", "country": "RI", "type": "volcano", "island": "island-Java", "name": "Ciremai", "located": {"country": "RI", "province": "prov-RI-12"}, "latitude": "-6.89", "longitude": "108.40", "elevation": "3078"}, {"id": "mount-Slamet", "country": "RI", "type": "volcano", "island": "island-Java", "name": "Slamet", "located": {"country": "RI", "province": "prov-RI-13"}, "latitude": "-7.25", "longitude": "109.22", "elevation": "3428"}, {"id": "mount-Merapi", "country": "RI", "type": "volcano", "island": "island-Java", "name": "Merapi", "located": {"country": "RI", "province": "prov-RI-13"}, "latitude": "-7.5", "longitude": "110.4", "elevation": "2914"}, {"id": "mount-Semeru", "country": "RI", "type": "volcano", "island": "island-Java", "name": "Semeru", "located": {"country": "RI", "province": "prov-RI-15"}, "latitude": "-8.1", "longitude": "112.9", "elevation": "3676"}, {"id": "mount-Raung", "country": "RI", "type": "volcano", "island": "island-Java", "name": "Raung", "located": {"country": "RI", "province": "prov-RI-15"}, "latitude": "-8.12", "longitude": "114.04", "elevation": "3332"}, {"id": "mount-Agung", "country": "RI", "type": "volcano", "island": "island-Bali", "last_eruption": "2017-11-28", "name": "Agung", "located": {"country": "RI", "province": "prov-RI-17"}, "latitude": "-8.3", "longitude": "115.5", "elevation": "3142"}, {"id": "mount-Rinjani", "country": "RI", "type": "volcano", "island": "island-Lombok", "name": "Rinjani", "located": {"country": "RI", "province": "prov-RI-18"}, "latitude": "-8.4", "longitude": "116.5", "elevation": "3726"}, {"id": "mount-Tambora", "country": "RI", "type": "volcano", "island": "island-Sumbawa", "name": "Tambora", "located": {"country": "RI", "province": "prov-RI-18"}, "latitude": "-8.24", "longitude": "118.0", "elevation": "2850"}, {"id": "mount-Sangeang", "country": "RI", "type": "volcano", "island": "island-Sangeang", "name": "Sangeang", "located": {"country": "RI", "province": "prov-RI-18"}, "latitude": "-8.97", "longitude": "119.07", "elevation": "1949"}, {"id": "mount-PocoMandasawu", "country": "RI", "type": "volcano", "island": "island-Flores", "name": "Poco Mandasawu", "located": {"country": "RI", "province": "prov-RI-19"}, "latitude": "-8.65", "longitude": "120.45", "elevation": "2370"}, {"id": "mount-Kelimutu", "country": "RI", "type": "volcano", "island": "island-Flores", "name": "Kelimutu", "located": {"country": "RI", "province": "prov-RI-19"}, "latitude": "-8.77", "longitude": "121.82", "elevation": "1639"}, {"id": "mount-Wanggameti", "country": "RI", "island": "island-Sumba", "name": "Wanggameti", "located": {"country": "RI", "province": "prov-RI-19"}, "latitude": "-10.1", "longitude": "120.2", "elevation": "1225"}, {"id": "mount-Mutis", "country": "RI", "island": "island-Timor", "name": "Mutis", "located": {"country": "RI", "province": "prov-RI-19"}, "latitude": "-8.9", "longitude": "125.5", "elevation": "2963"}, {"id": "mount-Tatamailau", "country": "TL", "island": "island-Timor", "name": "Tatamailau", "latitude": "-9.57", "longitude": "124.23", "elevation": "2427"}, {"id": "mount-Rantemario", "country": "RI", "type": "volcanic", "island": "island-Sulawesi", "name": "Rantemario", "located": {"country": "RI", "province": "prov-RI-26"}, "latitude": "-3.38", "longitude": "120.05", "elevation": "3478"}, {"id": "mount-MoncongLompobatang", "country": "RI", "type": "volcanic", "island": "island-Sulawesi", "name": "Moncong Lompobatang", "located": {"country": "RI", "province": "prov-RI-26"}, "latitude": "-5.33", "longitude": "119.93", "elevation": "2874"}, {"id": "mount-BuyuBalease", "country": "RI", "type": "volcanic", "island": "island-Sulawesi", "name": "Buyu Balease", "located": {"country": "RI", "province": "prov-RI-26"}, "latitude": "-2.41", "longitude": "120.53", "elevation": "3016"}, {"id": "mount-FuyulSojol", "country": "RI", "island": "island-Sulawesi", "name": "Fuyul Sojol", "located": {"country": "RI", "province": "prov-RI-25"}, "latitude": "0.58", "longitude": "120.20", "elevation": "3030"}, {"id": "mount-Klabat", "country": "RI", "type": "volcano", "island": "island-Sulawesi", "name": "Klabat", "located": {"country": "RI", "province": "prov-RI-24"}, "latitude": "1.45", "longitude": "125.03", "elevation": "1995"}, {"id": "mount-BuyuLumut", "country": "RI", "island": "island-Sulawesi", "name": "Buyu Lumut", "located": {"country": "RI", "province": "prov-RI-25"}, "latitude": "-1.19", "longitude": "121.77", "elevation": "2366"}, {"id": "mount-Mekongga", "country": "RI", "type": "volcanic", "island": "island-Sulawesi", "name": "Mekongga", "located": {"country": "RI", "province": "prov-RI-27"}, "latitude": "-3.69", "longitude": "121.30", "elevation": "2779"}, {"id": "mount-Gamalama", "country": "RI", "island": "island-Ternate", "type": "volcano", "last_eruption": "2014-12-18", "name": "Gamalama", "located": {"country": "RI", "province": "prov-RI-31"}, "latitude": "0.8", "longitude": "127.33", "elevation": "1715"}, {"id": "mount-Gamkonora", "country": "RI", "island": "island-Halmahera", "type": "volcano", "last_eruption": "2007-07-10", "name": "Gamkonora", "located": {"country": "RI", "province": "prov-RI-31"}, "latitude": "1.38", "longitude": "127.53", "elevation": "1635"}, {"id": "mount-Kapalatmada", "country": "RI", "island": "island-Buru", "name": "Kapalatmada", "located": {"country": "RI", "province": "prov-RI-30"}, "latitude": "-3.3", "longitude": "126.22", "elevation": "2428"}, {"id": "mount-Binaiya", "country": "RI", "island": "island-Ceram", "name": "Binaiya", "located": {"country": "RI", "province": "prov-RI-30"}, "latitude": "-3.1", "longitude": "129.3", "elevation": "3027"}, {"id": "mount-Salahutu", "country": "RI", "island": "island-Ambon", "name": "Salahutu", "located": {"country": "RI", "province": "prov-RI-30"}, "latitude": "-3.54", "longitude": "128.27", "elevation": "1023"}, {"id": "mount-Arfak", "country": "RI", "island": "island-New-Guinea", "name": "Mt. Arfak", "mountains": "Arfak Mountains", "located": {"country": "RI", "province": "prov-RI-32"}, "latitude": "1.16", "longitude": "133.97", "elevation": "2955"}, {"id": "mount-PuncakJaya", "country": "RI", "island": "island-New-Guinea", "name": ["Puncak Jaya", "Carstensz Pyramid"], "mountains": "Maoke Mountains", "located": {"country": "RI", "province": "prov-RI-33"}, "latitude": "-4.1", "longitude": "137.11", "elevation": "4884"}, {"id": "mount-PuncakTrikora", "country": "RI", "island": "island-New-Guinea", "name": "Puncak Trikora", "mountains": "Maoke Mountains", "located": {"country": "RI", "province": "prov-RI-33"}, "latitude": "-4.26", "longitude": "138.68", "elevation": "4750"}, {"id": "mount-PuncakMandala", "country": "RI", "island": "island-New-Guinea", "name": "Puncak Mandala", "mountains": "Maoke Mountains", "located": {"country": "RI", "province": "prov-RI-33"}, "latitude": "-4.71", "longitude": "140.29", "elevation": "4760"}, {"id": "mount-MtWilhelm", "country": "PNG", "island": "island-New-Guinea", "name": "Mt. Wilhelm", "mountains": "Bismarck Range", "located": {"country": "PNG", "province": "prov-PNG-N"}, "latitude": "-5.8", "longitude": "145", "elevation": "4509"}, {"id": "mount-Giluwe", "country": "PNG", "type": "volcano", "island": "island-New-Guinea", "name": "Mt. Giluwe", "mountains": "Bismarck Range", "located": {"country": "PNG", "province": "prov-PNG-S"}, "latitude": "-6.05", "longitude": "143.9", "elevation": "4368"}, {"id": "mount-Victoria", "country": "PNG", "island": "island-New-Guinea", "name": "Mt. Victoria", "mountains": "Owen Stanley Range", "located": {"country": "PNG", "province": "prov-PNG-S"}, "latitude": "-8.89", "longitude": "147.53", "elevation": "4038"}, {"id": "mount-Suckling", "country": "PNG", "island": "island-New-Guinea", "name": ["Mt. Suckling", "Goropu"], "mountains": "Owen Stanley Range", "located": {"country": "PNG", "province": "prov-PNG-S"}, "latitude": "-9.67", "longitude": "149.01", "elevation": "3676"}, {"id": "mount-Boising", "country": "PNG", "island": "island-New-Guinea", "name": "Mt. Boising", "mountains": "Finisterre Range", "located": {"country": "PNG", "province": "prov-PNG-N"}, "latitude": "-5.95", "longitude": "146.7", "elevation": "4150"}, {"id": "mount-Vineuo", "country": "PNG", "island": "island-Goodenough", "name": ["Mt. Vineuo", "Mt. Oiautukekea"], "located": {"country": "PNG", "province": "prov-PNG-S"}, "latitude": "-9.3", "longitude": "150.2", "elevation": "2536"}, {"id": "mount-Ulawun", "country": "PNG", "type": "volcano", "island": "island-NewBritain", "name": "Mt. Ulawun", "located": {"country": "PNG", "province": "prov-PNG-N"}, "latitude": "-5.05", "longitude": "151.33", "elevation": "2334"}, {"id": "mount-Taron", "country": "PNG", "island": "island-NewIreland", "name": "Mt. Taron", "located": {"country": "PNG", "province": "prov-PNG-N"}, "latitude": "-4.40", "longitude": "152.94", "elevation": "2379"}, {"id": "mount-Balbi", "country": "PNG", "type": "volcanic", "island": "island-Bougainville", "name": "Mt. Balbi", "located": {"country": "PNG", "province": "prov-PNG-B"}, "latitude": "-5.9", "longitude": "155", "elevation": "2715"}, {"id": "mount-Tomanivi", "country": "FJI", "type": "volcanic", "island": "island-VitiLevu", "name": ["Mt. Tomanivi", "Mt. Victoria"], "latitude": "-17.63", "longitude": "178.01", "elevation": "1324"}, {"id": "mount-Nasorolevu", "country": "FJI", "type": "volcanic", "island": "island-VanuaLevu", "name": ["Mt. Nasorolevu", "Mt. Batini"], "latitude": "-16.62", "longitude": "179.38", "elevation": "1032"}, {"id": "mount-Tabwemasana", "country": "VU", "island": "island-EspirituSanto", "name": "Tabwemasana", "latitude": "-15.35", "longitude": "166.75", "elevation": "1879"}, {"id": "mount-Silisili", "country": "WS", "type": "volcanic", "island": "island-Savaii", "name": "Silisili", "latitude": "-13.6", "longitude": "-172.4", "elevation": "1858"}, {"id": "mount-Fito", "country": "WS", "type": "volcanic", "island": "island-Upolu", "name": "Mt. Fito", "latitude": "-13.94", "longitude": "-171.73", "elevation": "1113"}, {"id": "mount-Orohena", "country": "FPOL", "type": "volcanic", "island": "island-Tahiti", "name": "Mont Orohena", "latitude": "-17.6", "longitude": "-149.5", "elevation": "2241"}, {"id": "mount-Tefatua", "country": "FPOL", "type": "volcanic", "island": "island-Raiatea", "name": ["Mt. Tefatua", "Mt. Toomaru"], "latitude": "-16.83", "longitude": "-151.45", "elevation": "1017"}, {"id": "mount-Popomanaseu", "country": "SLB", "type": "volcanic", "island": "island-Guadalcanal", "name": "Popomanaseu", "latitude": "-9.7", "longitude": "160.1", "elevation": "2335"}, {"id": "mount-Veve", "country": "SLB", "type": "volcano", "island": "island-Kolombangara", "name": "Mt. Veve", "latitude": "-7.97", "longitude": "157.06", "elevation": "1770"}, {"id": "mount-Panie", "country": "NCA", "island": "island-GrandeTerre", "name": "Mt. Pani\u00e9", "latitude": "-20.59", "longitude": "164.77", "elevation": "1629"}, {"id": "mount-Mauna_Kea", "country": "USA", "type": "volcano", "island": "island-Hawaii", "name": "Mauna Kea", "mountains": "Hawaii", "located": {"country": "USA", "province": "prov-United-States-12"}, "latitude": "19.6", "longitude": "-155.45", "elevation": "4214"}, {"id": "mount-Mauna_Loa", "country": "USA", "type": "volcano", "island": "island-Hawaii", "name": "Mauna Loa", "mountains": "Hawaii", "located": {"country": "USA", "province": "prov-United-States-12"}, "latitude": "19.5", "longitude": "-155.6", "elevation": "4170"}, {"id": "mount-Haleakala", "country": "USA", "type": "volcano", "island": "island-Maui", "name": "Haleakala", "mountains": "Hawaii", "located": {"country": "USA", "province": "prov-United-States-12"}, "latitude": "20.7", "longitude": "-156.25", "elevation": "3055"}, {"id": "mount-MaunaKamakou", "country": "USA", "type": "volcano", "island": "island-Molokai", "name": "Mauna Kamakou", "mountains": "Hawaii", "located": {"country": "USA", "province": "prov-United-States-12"}, "latitude": "21.11", "longitude": "-156.87", "elevation": "1515"}, {"id": "mount-Kaala", "country": "USA", "type": "volcano", "island": "island-Oahu", "name": "Ka\u02bbala", "mountains": "Hawaii", "located": {"country": "USA", "province": "prov-United-States-12"}, "latitude": "21.51", "longitude": "-158.14", "elevation": "1220"}, {"id": "mount-Kawaikini", "country": "USA", "type": "volcano", "island": "island-Kauai", "name": "Kawaikini", "mountains": "Hawaii", "located": {"country": "USA", "province": "prov-United-States-12"}, "latitude": "22.07", "longitude": "-159.49", "elevation": "1598"}, {"id": "mount-Lanaihale", "country": "USA", "type": "volcano", "island": "island-Lanai", "name": "L\u0101naihale", "mountains": "Hawaii", "located": {"country": "USA", "province": "prov-United-States-12"}, "latitude": "20.81", "longitude": "-156.87", "elevation": "1026"}, {"id": "mount-Mt-Kosciuszko", "country": "AUS", "name": "Mt. Kosciuszko", "mountains": "Snowy Mountains", "located": {"country": "AUS", "province": "prov-Australia-2"}, "latitude": "-36.5", "longitude": "148", "elevation": "2228"}, {"id": "mount-Mt-Bogong", "country": "AUS", "name": "Mt. Bogong", "mountains": "Snowy Mountains", "located": {"country": "AUS", "province": "prov-Australia-7"}, "latitude": "-37", "longitude": "147.5", "elevation": "1986"}, {"id": "mount-Bindo", "country": "AUS", "name": "Mt. Bindo", "mountains": "Blue Mountains", "located": {"country": "AUS", "province": "prov-Australia-2"}, "latitude": "-33.7", "longitude": "150.0", "elevation": "1359"}, {"id": "mount-Uluru", "country": "AUS", "type": "monolith", "name": "Uluru", "located": {"country": "AUS", "province": "prov-Australia-3"}, "latitude": "-25.3", "longitude": "131", "elevation": "869"}, {"id": "mount-Zeil", "country": "AUS", "name": "Mt. Zeil", "located": {"country": "AUS", "province": "prov-Australia-3"}, "latitude": "-23.6", "longitude": "132.7", "elevation": "1531"}, {"id": "mount-Meharry", "country": "AUS", "name": "Mt. Meharry", "located": {"country": "AUS", "province": "prov-Australia-8"}, "latitude": "-23.0", "longitude": "118.6", "elevation": "1251"}, {"id": "mount-Woodroffe", "country": "AUS", "name": "Mt. Woodroffe", "mountains": "Musgrave Ranges", "located": {"country": "AUS", "province": "prov-Australia-5"}, "latitude": "-26.3", "longitude": "131.8", "elevation": "1435"}, {"id": "mount-StMaryPeak", "country": "AUS", "name": "Saint Mary Peak", "mountains": "Flinders Range", "located": {"country": "AUS", "province": "prov-Australia-5"}, "latitude": "-31.5", "longitude": "138.55", "elevation": "1189"}, {"id": "mount-BartleFrere", "country": "AUS", "name": "Mt. Bartle Frere", "located": {"country": "AUS", "province": "prov-Australia-4"}, "latitude": "-17.4", "longitude": "145.8", "elevation": "1622"}, {"id": "mount-Ossa", "country": "AUS", "island": "island-Tasmania", "name": "Mt. Ossa", "located": {"country": "AUS", "province": "prov-Australia-6"}, "latitude": "-41.86", "longitude": "146.04", "elevation": "1617"}, {"id": "mount-MtCook", "country": "NZ", "island": "island-TeWakaAMaui", "name": ["Mt. Cook", "Aoraki"], "mountains": "New Zealand Southern Alps", "latitude": "-43.6", "longitude": "170.2", "elevation": "3724"}, {"id": "mount-MtAspiring", "country": "NZ", "island": "island-TeWakaAMaui", "name": ["Mt. Aspiring", "Tititea"], "mountains": "New Zealand Southern Alps", "latitude": "-44.38", "longitude": "168.72", "elevation": "3033"}, {"id": "mount-MtTapuaenuku", "country": "NZ", "island": "island-TeWakaAMaui", "name": "Mt. Tapuaenuku", "mountains": "Kaikoura Ranges", "latitude": "-42.00", "longitude": "173.66", "elevation": "2885"}, {"id": "mount-Ruapehu", "country": "NZ", "type": "volcano", "island": "island-TeIkaAMaui", "last_eruption": "2007-09-25", "name": "Ruapehu", "latitude": "-39.3", "longitude": "175.6", "elevation": "2797"}, {"id": "mount-Taranaki", "country": "NZ", "type": "volcano", "island": "island-TeIkaAMaui", "name": ["Mt. Taranaki", "Mt. Egmont"], "latitude": "-39.3", "longitude": "174.06", "elevation": "2518"}, {"id": "mount-Barbeau", "country": "CDN", "island": "island-Ellesmere_Island", "name": "Barbeau Peak", "mountains": "British Empire Range", "located": {"country": "CDN", "province": "prov-Canada-14"}, "latitude": "81.9", "longitude": "-75.0", "elevation": "2616"}, {"id": "mount-Treuter", "country": "CDN", "island": "island-Devon_Island", "name": "Treuter Mt.", "located": {"country": "CDN", "province": "prov-Canada-14"}, "latitude": "75.3", "longitude": "-82.8", "elevation": "1920"}, {"id": "mount-Odin", "country": "CDN", "island": "island-Baffin_Island", "name": "Mt. Odin", "mountains": "Penny Highlands", "located": {"country": "CDN", "province": "prov-Canada-14"}, "latitude": "66.55", "longitude": "-65.6", "elevation": "2147"}, {"id": "mount-Makushin", "country": "USA", "type": "volcano", "island": "island-Unalaska", "last_eruption": "1995-01-30", "name": "Makushin", "located": {"country": "USA", "province": "prov-United-States-3"}, "latitude": "53.9", "longitude": "-166.9", "elevation": "2036"}, {"id": "mount-Shishaldin", "country": "USA", "type": "volcano", "island": "island-Unimak", "name": "Shishaldin", "located": {"country": "USA", "province": "prov-United-States-3"}, "latitude": "54.75", "longitude": "-163.97", "elevation": "2857"}, {"id": "mount-Isto", "country": "USA", "name": "Mt. Isto", "mountains": "Brooks Range", "located": {"country": "USA", "province": "prov-United-States-3"}, "latitude": "69.2", "longitude": "-143.8", "elevation": "2736"}, {"id": "mount-Mt_Redoubt", "country": "USA", "type": "volcano", "name": "Mt. Redoubt", "mountains": "Aleutian Range", "located": {"country": "USA", "province": "prov-United-States-3"}, "latitude": "60.5", "longitude": "-152.75", "elevation": "3108"}, {"id": "mount-Mt_McKinley", "country": "USA", "name": "Mt. McKinley (Denali)", "mountains": "Alaska Range", "located": {"country": "USA", "province": "prov-United-States-3"}, "latitude": "63.1", "longitude": "-151", "elevation": "6193"}, {"id": "mount-MtBlackburn", "type": "volcano", "country": "USA", "name": "Mt. Blackburn", "mountains": "Wrangell Mountains", "located": {"country": "USA", "province": "prov-United-States-3"}, "latitude": "61.7", "longitude": "-143.4", "elevation": "4996"}, {"id": "mount-MtBona", "country": "USA CDN", "name": "Mt. Bona", "mountains": "Elias Range", "located": [{"country": "USA", "province": "prov-United-States-3"}, {"country": "CDN", "province": "prov-Canada-12"}], "latitude": "61.4", "longitude": "-141.75", "elevation": "5005"}, {"id": "mount-StElias", "country": "USA CDN", "name": "Mt. St.Elias", "mountains": "Elias Range", "located": [{"country": "USA", "province": "prov-United-States-3"}, {"country": "CDN", "province": "prov-Canada-13"}], "latitude": "60.3", "longitude": "-140.9", "elevation": "5489"}, {"id": "mount-Logan", "country": "CDN", "name": "Mt. Logan", "mountains": "Elias Range", "located": {"country": "CDN", "province": "prov-Canada-13"}, "latitude": "60.6", "longitude": "-140.4", "elevation": "5959"}, {"id": "mount-Fairweather", "country": "CDN USA", "name": "Mt. Fairweather", "mountains": "Elias Range", "located": [{"country": "USA", "province": "prov-United-States-3"}, {"country": "CDN", "province": "prov-Canada-3"}], "latitude": "58.9", "longitude": "-137.5", "elevation": "4663"}, {"id": "mount-BirchMountain", "country": "CDN", "island": "island-TeresaIsland", "name": "Birch Mountain", "located": {"country": "CDN", "province": "prov-Canada-3"}, "latitude": "59.43", "longitude": "-133.82", "elevation": "2062"}, {"id": "mount-Ratz", "country": "CDN", "name": "Mt. Ratz", "mountains": "Alaska Boundary Range", "located": {"country": "CDN", "province": "prov-Canada-3"}, "latitude": "57.4", "longitude": "-132.3", "elevation": "3090"}, {"id": "mount-Ulysses", "country": "CDN", "name": "Mt. Ulysses", "mountains": "Rocky Mountains", "located": {"country": "CDN", "province": "prov-Canada-3"}, "latitude": "57.34", "longitude": "-124.1", "elevation": "3024"}, {"id": "mount-Waddington", "country": "CDN", "name": "Mt. Waddington", "mountains": "Pacific Ranges", "located": {"country": "CDN", "province": "prov-Canada-3"}, "latitude": "51.4", "longitude": "-125.26", "elevation": "4019"}, {"id": "mount-Robson", "country": "CDN", "name": "Mt. Robson", "mountains": "Rocky Mountains", "located": {"country": "CDN", "province": "prov-Canada-3"}, "latitude": "52.3", "longitude": "-119.1", "elevation": "3954"}, {"id": "mount-Columbia", "country": "CDN", "name": "Mt. Columbia", "mountains": "Rocky Mountains", "located": {"country": "CDN", "province": "prov-Canada-3 prov-Canada-2"}, "latitude": "52.15", "longitude": "-117.44", "elevation": "3747"}, {"id": "mount-Assiniboine", "country": "CDN", "name": "Mt. Assiniboine", "mountains": "Rocky Mountains", "located": {"country": "CDN", "province": "prov-Canada-3"}, "latitude": "50.86", "longitude": "-115.65", "elevation": "3618"}, {"id": "mount-GoldenHinde", "country": "CDN", "island": "island-Vancouver_Island", "name": "Golden Hinde", "located": {"country": "CDN", "province": "prov-Canada-3"}, "latitude": "49.66", "longitude": "-125.74", "elevation": "2195"}, {"id": "mount-Granite_Peak", "country": "USA", "name": "Granite Peak", "mountains": "Rocky Mountains", "located": {"country": "USA", "province": "prov-United-States-27"}, "latitude": "45", "longitude": "-109.5", "elevation": "3901"}, {"id": "mount-Borah_Peak", "country": "USA", "name": "Borah Peak", "mountains": "Rocky Mountains", "located": {"country": "USA", "province": "prov-United-States-13"}, "latitude": "44.1", "longitude": "-113.8", "elevation": "3859"}, {"id": "mount-Harney_Peak", "country": "USA", "name": "Harney Peak", "mountains": "Rocky Mountains", "located": {"country": "USA", "province": "prov-United-States-42"}, "latitude": "44", "longitude": "-103.4", "elevation": "2207"}, {"id": "mount-Gannett_Peak", "country": "USA", "name": "Gannett Peak", "mountains": "Rocky Mountains", "located": {"country": "USA", "province": "prov-United-States-51"}, "latitude": "43.2", "longitude": "-110", "elevation": "4207"}, {"id": "mount-Kings_Peak", "country": "USA", "name": "Kings Peak", "mountains": "Rocky Mountains", "located": {"country": "USA", "province": "prov-United-States-45"}, "latitude": "40.5", "longitude": "-110.4", "elevation": "4123"}, {"id": "mount-Mt_Elbert", "country": "USA", "name": "Mt. Elbert", "mountains": "Rocky Mountains", "located": {"country": "USA", "province": "prov-United-States-7"}, "latitude": "39.1", "longitude": "-106.4", "elevation": "4401"}, {"id": "mount-PikesPeak", "country": "USA", "name": "Pikes Peak", "mountains": "Rocky Mountains", "located": {"country": "USA", "province": "prov-United-States-7"}, "latitude": "38.8", "longitude": "-105", "elevation": "4302"}, {"id": "mount-Wheeler", "country": "USA", "name": "Wheeler Peak", "mountains": "Rocky Mountains", "located": {"country": "USA", "province": "prov-United-States-32"}, "latitude": "36.55", "longitude": "-105.4", "elevation": "4011"}, {"id": "mount-Humphreys_Peak", "country": "USA", "type": "volcanic", "name": "Humphreys Peak", "mountains": "San Francisco Peaks", "located": {"country": "USA", "province": "prov-United-States-4"}, "latitude": "35.3", "longitude": "-111.65", "elevation": "3850"}, {"id": "mount-Guadalupe_Peak", "country": "USA", "name": "Guadalupe Peak", "mountains": "Rocky Mountains", "located": {"country": "USA", "province": "prov-United-States-44"}, "latitude": "31.9", "longitude": "-104.85", "elevation": "2667"}, {"id": "mount-Mt_Rainier", "country": "USA", "type": "volcano", "name": "Mt. Rainier", "mountains": "Cascade Range", "located": {"country": "USA", "province": "prov-United-States-48"}, "latitude": "46.85", "longitude": "-121.75", "elevation": "4392"}, {"id": "mount-Adams", "country": "USA", "type": "volcano", "name": "Mt. Adams", "mountains": "Cascade Range", "located": {"country": "USA", "province": "prov-United-States-48"}, "latitude": "46.2", "longitude": "-121.5", "elevation": "3743"}, {"id": "mount-Mt_Hood", "country": "USA", "type": "volcano", "name": "Mt. Hood", "mountains": "Cascade Range", "located": {"country": "USA", "province": "prov-United-States-38"}, "latitude": "45.2", "longitude": "-121.5", "elevation": "3424"}, {"id": "mount-Mazama", "country": "USA", "type": "volcanic", "name": "Mt. Mazama Caldera", "mountains": "Cascade Range", "located": {"country": "USA", "province": "prov-United-States-38"}, "latitude": "42.91", "longitude": "-122.08", "elevation": "2487"}, {"id": "mount-Mt_Whitney", "country": "USA", "name": "Mt. Whitney", "mountains": "Sierra Nevada California", "located": {"country": "USA", "province": "prov-United-States-6"}, "latitude": "36.6", "longitude": "-118.2", "elevation": "4418"}, {"id": "mount-Boundary_Peak", "country": "USA", "name": "Boundary Peak", "mountains": "Sierra Nevada California", "located": {"country": "USA", "province": "prov-United-States-29 prov-United-States-6"}, "latitude": "37.9", "longitude": "-118.3", "elevation": "4006"}, {"id": "mount-SanJacintoPeak", "country": "USA", "name": "San Jacinto Peak", "mountains": "Peninsular Ranges", "located": {"country": "USA", "province": "prov-United-States-6"}, "latitude": "33.8", "longitude": "-116.67", "elevation": "3302"}, {"id": "mount-Babel", "country": "CDN", "island": "island-ReneLevasseur", "name": "Mt. Babel", "located": {"country": "CDN", "province": "prov-Canada-11"}, "latitude": "51.45", "longitude": "-68.7", "elevation": "952"}, {"id": "mount-Mt_Washington", "country": "USA", "name": "Mt. Washington", "mountains": "Appalachian Mountains", "located": {"country": "USA", "province": "prov-United-States-30"}, "latitude": "44.3", "longitude": "-71.3", "elevation": "1917"}, {"id": "mount-Mt_Caubvick", "country": "CDN", "name": "Mt. Caubvick", "located": {"country": "CDN", "province": "prov-Canada-6 prov-Canada-11"}, "latitude": "58.9", "longitude": "-63.7", "elevation": "1652"}, {"id": "mount-Mt_Marcy", "country": "USA", "name": "Mt. Marcy", "mountains": "Adirondacks", "located": {"country": "USA", "province": "prov-United-States-33"}, "latitude": "44.1", "longitude": "-73.9", "elevation": "1629"}, {"id": "mount-Mt_Mitchell", "country": "USA", "name": "Mt. Mitchell", "mountains": "Appalachian Mountains", "located": {"country": "USA", "province": "prov-United-States-34"}, "latitude": "35.4", "longitude": "-82.1", "elevation": "2037"}, {"id": "mount-Clingmans_Dome", "country": "USA", "name": "Clingmans Dome", "mountains": "Appalachian Mountains", "located": {"country": "USA", "province": "prov-United-States-43"}, "latitude": "35.3", "longitude": "-83.2", "elevation": "2025"}, {"id": "mount-Mohinora", "country": "MEX", "type": "volcanic", "name": "Cerro Mohinora", "mountains": "Sierra Madre Occidental", "located": {"country": "MEX", "province": "prov-Mexico-7"}, "latitude": "25.95", "longitude": "-107.05", "elevation": "3308"}, {"id": "mount-SanRafael", "country": "MEX", "name": "Cerro San Rafael", "mountains": "Sierra Madre Oriental", "located": {"country": "MEX", "province": "prov-Mexico-8"}, "latitude": "25.35", "longitude": "-100.55", "elevation": "3751"}, {"id": "mount-Nevado_de_Colima", "country": "MEX", "type": "volcano", "name": "Nevado de Colima", "mountains": "Sierra Volcanica Transversal", "located": {"country": "MEX", "province": "prov-Mexico-14"}, "latitude": "19.5", "longitude": "-103.6", "elevation": "4330"}, {"id": "mount-Iztaccihuatl", "country": "MEX", "type": "volcanic", "name": "Iztaccihuatl", "mountains": "Sierra Volcanica Transversal", "located": {"country": "MEX", "province": "prov-Mexico-21"}, "latitude": "19.2", "longitude": "-98.6", "elevation": "5230"}, {"id": "mount-Nevado_de_Toluca", "country": "MEX", "type": "volcano", "name": "Nevado de Toluca", "mountains": "Sierra Volcanica Transversal", "located": {"country": "MEX", "province": "prov-Mexico-15"}, "latitude": "19.1", "longitude": "-99.75", "elevation": "4690"}, {"id": "mount-Citlaltepetl", "country": "MEX", "type": "volcano", "name": "Citlaltepetl (Pico de Orizaba)", "mountains": "Sierra Volcanica Transversal", "located": {"country": "MEX", "province": "prov-Mexico-21 prov-Mexico-30"}, "latitude": "19.0", "longitude": "-97.3", "elevation": "5636"}, {"id": "mount-Popocatepetl", "country": "MEX", "type": "volcano", "name": "Popocatepetl", "mountains": "Sierra Volcanica Transversal", "located": {"country": "MEX", "province": "prov-Mexico-15 prov-Mexico-17 prov-Mexico-21"}, "latitude": "19.0", "longitude": "-98.6", "elevation": "5462"}, {"id": "mount-Nacimiento", "country": "MEX", "name": "Cerro el Nacimiento", "mountains": "Sierra Madre del Sur", "located": {"country": "MEX", "province": "prov-Mexico-12"}, "latitude": "17.55", "longitude": "-100.3", "elevation": "3703"}, {"id": "mount-Tajumulco", "country": "GCA", "type": "volcanic", "name": "Tajumulco", "mountains": "Sierra Madre de Chiapas", "latitude": "15.0", "longitude": "-91.9", "elevation": "4220"}, {"id": "mount-SantaMaria", "country": "GCA", "type": "volcano", "name": "Santa Mar\u00eda", "mountains": "Sierra Madre de Chiapas", "latitude": "14.76", "longitude": "-91.55", "elevation": "3772"}, {"id": "mount-SantaAna", "country": "ES", "type": "volcano", "name": ["Santa Ana", "Ilamatepec"], "mountains": "Cordillera de Apaneca", "latitude": "13.85", "longitude": "-89.63", "elevation": "2381"}, {"id": "mount-ElPital", "country": "ES HCA", "name": "El Pital", "mountains": "Sierra Madre de Chiapas", "located": {"country": "HCA", "province": "prov-Honduras-15"}, "latitude": "14.38", "longitude": "-89.12", "elevation": "2730"}, {"id": "mount-CerroLasMinas", "country": "ES HCA", "type": "volcano", "name": ["Cerro Las Minas", "Pico Celaque"], "located": {"country": "HCA", "province": "prov-Honduras-14"}, "latitude": "14.53", "longitude": "-88.68", "elevation": "2870"}, {"id": "mount-PicoMogoton", "country": "HCA NIC", "type": "volcano", "name": "Pico Mogot\u00f3n", "located": {"country": "HCA", "province": "prov-Honduras-8"}, "latitude": "13.77", "longitude": "-86.38", "elevation": "2107"}, {"id": "mount-Concepcion", "country": "NIC", "type": "volcano", "island": "island-Ometepe", "name": "Concepcion", "latitude": "11.5", "longitude": "-85.6", "elevation": "1700"}, {"id": "mount-Irazu", "country": "CR", "type": "volcano", "name": "Irazu", "mountains": "Cordillera de Talamanca", "located": {"country": "CR", "province": "prov-Costa-Rica-4"}, "latitude": "10", "longitude": "-83.9", "elevation": "3432"}, {"id": "mount-CerroChirripo", "country": "CR", "type": "volcanic", "name": "Cerro Chirripo", "mountains": "Cordillera de Talamanca", "located": {"country": "CR", "province": "prov-Costa-Rica-8 prov-Costa-Rica-4"}, "latitude": "9.5", "longitude": "-83.5", "elevation": "3819"}, {"id": "mount-Baru", "country": "PA", "type": "volcano", "name": "Baru", "located": {"country": "PA", "province": "prov-Panama-6"}, "latitude": "8.81", "longitude": "-82.54", "elevation": "3475"}, {"id": "mount-PicoTurquino", "country": "C", "island": "island-Cuba", "name": "Pico Turquino", "mountains": "Sierra Maestra", "located": {"country": "C", "province": "prov-Cuba-6 prov-Cuba-14"}, "latitude": "20", "longitude": "-76.8", "elevation": "1974"}, {"id": "mount-Blue_Mountain_Peak", "country": "JA", "island": "island-Jamaica", "name": "Blue Mountain Peak", "latitude": "18.1", "longitude": "-76.4", "elevation": "2256"}, {"id": "mount-PicSelle", "country": "RH", "island": "island-Hispaniola", "name": "Pic la Selle", "latitude": "18.37", "longitude": "-71.98", "elevation": "2674"}, {"id": "mount-Pico_Duarte", "country": "DOM", "island": "island-Hispaniola", "name": "Pico Duarte", "latitude": "18.3", "longitude": "-71.3", "elevation": "3098"}, {"id": "mount-CerroPunta", "country": "PR", "island": "island-PuertoRico", "name": "Cerro de Punta", "latitude": "18.2", "longitude": "-66.6", "elevation": "1338"}, {"id": "mount-Liamuiga", "country": "KN", "type": "volcano", "island": "island-Saint_Kitts", "name": "Liamuiga", "latitude": "17.37", "longitude": "-62.80", "elevation": "1156"}, {"id": "mount-NevisPeak", "country": "KN", "type": "volcano", "island": "island-Nevis", "name": "Nevis Peak", "latitude": "17.15", "longitude": "-62.58", "elevation": "985"}, {"id": "mount-SoufriereHills", "country": "MNTS", "type": "volcano", "island": "island-Montserrat", "name": "Soufriere Hills", "latitude": "16.7", "longitude": "-62.2", "elevation": "1050"}, {"id": "mount-LaSoufriere", "country": "GUAD", "type": "volcano", "island": "island-Basse-Terre", "name": "La Soufriere", "latitude": "16.05", "longitude": "-61.65", "elevation": "1467"}, {"id": "mount-Soufriere", "country": "WV", "type": "volcano", "island": "island-Saint_Vincent", "name": "Soufriere", "latitude": "13.35", "longitude": "-61.2", "elevation": "1220"}, {"id": "mount-MorneDiablotins", "country": "WD", "type": "volcano", "island": "island-Dominica", "name": "Morne Diablotins", "latitude": "15.5", "longitude": "-61.4", "elevation": "1447"}, {"id": "mount-Pelee", "country": "MART", "type": "volcano", "island": "island-Martinique", "name": "Pelee", "latitude": "14.8", "longitude": "-61.15", "elevation": "1397"}, {"id": "mount-PicoCristobalColon", "country": "CO", "name": "Pico Cristobal Colon", "mountains": "Sierra Nevada de Santa Marta", "located": {"country": "CO", "province": "prov-Colombia-20"}, "latitude": "10.85", "longitude": "-73.7", "elevation": "5775"}, {"id": "mount-PicoBolivar", "country": "YV", "name": "Pico Bolivar", "mountains": "Cordillera Oriental", "located": {"country": "YV", "province": "prov-Venezuela-14"}, "latitude": "8.6", "longitude": "-71.0", "elevation": "4981"}, {"id": "mount-Naiguata", "country": "YV", "name": "Pico Naiguat\u00e1", "mountains": "Venezuelan Coastal Range", "located": {"country": "YV", "province": "prov-Venezuela-15 prov-Venezuela-26"}, "latitude": "10.55", "longitude": "-66.8", "elevation": "2765"}, {"id": "mount-Tristeza", "country": "YV", "name": "Cerro Tristeza", "located": {"country": "YV", "province": "prov-Venezuela-19 prov-Venezuela-3 prov-Venezuela-16"}, "latitude": "10.1", "longitude": "-63.95", "elevation": "2596"}, {"id": "mount-RitacubaBlanco", "country": "CO", "name": "Ritacuba Blanco", "mountains": "Cordillera Oriental", "located": {"country": "CO", "province": "prov-Colombia-7"}, "latitude": "6.5", "longitude": "-72.3", "elevation": "5410"}, {"id": "mount-NevadoDelRuiz", "country": "CO", "type": "volcano", "name": "Nevado del Ruiz", "mountains": "Cordillera Occidental", "located": {"country": "CO", "province": "prov-Colombia-26 prov-Colombia-13"}, "latitude": "4.9", "longitude": "-75.3", "elevation": "5389"}, {"id": "mount-NevadoDelHuila", "country": "CO", "type": "volcano", "name": "Nevado del Huila", "mountains": "Cordillera Occidental", "located": {"country": "CO", "province": "prov-Colombia-19"}, "latitude": "2.9", "longitude": "-76.0", "elevation": "5750"}, {"id": "mount-Wolf", "country": "EC", "type": "volcano", "island": "island-Isabela", "last_eruption": "2015-05-25", "name": "Wolf", "latitude": "0.3", "longitude": "-91.23", "elevation": "1707"}, {"id": "mount-Cayambe", "country": "EC", "type": "volcano", "name": "Cayambe", "mountains": "Cordillera Occidental", "latitude": "0.1", "longitude": "-78", "elevation": "5796"}, {"id": "mount-Cotopaxi", "country": "EC", "type": "volcano", "last_eruption": "2015-08-30", "name": "Cotopaxi", "mountains": "Cordillera Occidental", "latitude": "-0.7", "longitude": "-78.4", "elevation": "5897"}, {"id": "mount-Chimborazo", "country": "EC", "type": "volcano", "name": "Chimborazo", "mountains": "Cordillera Occidental", "latitude": "-1.2", "longitude": "-78.5", "elevation": "6287"}, {"id": "mount-Rocarre", "country": "PE", "name": "Pico Rocarre", "mountains": "Cordillera Negra", "located": {"country": "PE", "province": "prov-Peru-3"}, "latitude": "-8.8", "longitude": "-78", "elevation": "5187"}, {"id": "mount-Alpamayo", "country": "PE", "name": "Alpamayo", "mountains": "Cordillera Blanca", "located": {"country": "PE", "province": "prov-Peru-3"}, "latitude": "-8.9", "longitude": "-77.7", "elevation": "5947"}, {"id": "mount-Huascaran", "country": "PE", "name": "Huascaran", "mountains": "Cordillera Blanca", "located": {"country": "PE", "province": "prov-Peru-3"}, "latitude": "-9.1", "longitude": "-77.6", "elevation": "6768"}, {"id": "mount-Yerupaja", "country": "PE", "name": "Yerupaja", "mountains": "Cordillera Blanca", "located": {"country": "PE", "province": "prov-Peru-3"}, "latitude": "-10.3", "longitude": "-76.9", "elevation": "6635"}, {"id": "mount-Ausangate", "country": "PE", "name": "Ausangate", "mountains": "Cordillera Vilcanota", "located": {"country": "PE", "province": "prov-Peru-9"}, "latitude": "-13.8", "longitude": "-71.2", "elevation": "6336"}, {"id": "mount-Coropuna", "country": "PE", "type": "volcano", "name": "Coropuna", "mountains": "Cordillera Volcanica", "located": {"country": "PE", "province": "prov-Peru-5"}, "latitude": "-15.5", "longitude": "-72.65", "elevation": "6425"}, {"id": "mount-Ampato", "country": "PE", "type": "volcano", "name": "Ampato", "mountains": "Cordillera Volcanica", "located": {"country": "PE", "province": "prov-Peru-5"}, "latitude": "-15.8", "longitude": "-71.9", "elevation": "6288"}, {"id": "mount-PachaMama", "country": "PE", "name": "Pacha Mama", "located": {"country": "PE", "province": "prov-Peru-23"}, "latitude": "-15.66", "longitude": "-69.71", "elevation": "4138"}, {"id": "mount-Illampu", "country": "BOL", "type": "granite", "name": "Illampu", "mountains": "Cordillera Real", "located": {"country": "BOL", "province": "prov-BOL-1"}, "latitude": "-15.8", "longitude": "-68.5", "elevation": "6368"}, {"id": "mount-Illimani", "country": "BOL", "type": "granite", "name": "Illimani", "mountains": "Cordillera Real", "located": {"country": "BOL", "province": "prov-BOL-1"}, "latitude": "-16.65", "longitude": "-67.8", "elevation": "6439"}, {"id": "mount-Sajama", "country": "BOL", "type": "volcano", "name": "Sajama", "mountains": "Cordillera Volcanica", "located": {"country": "BOL", "province": "prov-BOL-2"}, "latitude": "-18.1", "longitude": "-68.9", "elevation": "6542"}, {"id": "mount-AltoToroni", "country": "BOL RCH", "type": "volcanic", "name": "Alto Toroni", "mountains": "Cordillera Volcanica", "located": [{"country": "BOL", "province": "prov-BOL-3"}, {"country": "RCH", "province": "prov-Chile-1"}], "latitude": "-19.75", "longitude": "-68.7", "elevation": "5982"}, {"id": "mount-Ollag\u00fce", "country": "BOL RCH", "type": "volcano", "name": "Ollag\u00fce", "mountains": "Cordillera Volcanica", "located": [{"country": "BOL", "province": "prov-BOL-3"}, {"country": "RCH", "province": "prov-Chile-2"}], "latitude": "-21.3", "longitude": "-68.2", "elevation": "5870"}, {"id": "mount-Uturuncu", "country": "BOL", "type": "volcanic", "name": "Uturuncu", "mountains": "Cordillera de L\u00edpez", "located": {"country": "BOL", "province": "prov-BOL-3"}, "latitude": "-22.27", "longitude": "-67.18", "elevation": "6008"}, {"id": "mount-Zapaleri", "country": "BOL RCH RA", "type": "volcanic", "name": "Zapaleri", "mountains": "Cordillera de L\u00edpez", "located": [{"country": "BOL", "province": "prov-BOL-3"}, {"country": "RCH", "province": "prov-Chile-2"}, {"country": "RA", "province": "prov-Argentina-10"}], "latitude": "-22.8", "longitude": "-67.2", "elevation": "5653"}, {"id": "mount-Licancabur", "country": "BOL RCH", "type": "volcano", "name": "Licancabur", "mountains": "Andes", "located": [{"country": "BOL", "province": "prov-BOL-3"}, {"country": "RCH", "province": "prov-Chile-2"}], "latitude": "-22.8", "longitude": "-67.9", "elevation": "5920"}, {"id": "mount-Llullaillaco", "country": "RA RCH", "type": "volcano", "name": "Llullaillaco", "mountains": "Andes", "located": [{"country": "RA", "province": "prov-Argentina-24"}, {"country": "RCH", "province": "prov-Chile-2"}], "latitude": "-24.7", "longitude": "-68.5", "elevation": "6739"}, {"id": "mount-OjosdelSalado", "country": "RA RCH", "type": "volcano", "name": "Ojos del Salado", "mountains": "Andes", "located": [{"country": "RA", "province": "prov-Argentina-24"}, {"country": "RCH", "province": "prov-Chile-3"}], "latitude": "-27.1", "longitude": "-68.5", "elevation": "6893"}, {"id": "mount-MontePissis", "country": "RA", "type": "volcanic", "name": "Monte Pissis", "mountains": "Andes", "located": {"country": "RA", "province": "prov-Argentina-12 prov-Argentina-24"}, "latitude": "-27.8", "longitude": "-68.85", "elevation": "6795"}, {"id": "mount-NevadoFamatina", "country": "RA", "name": "Nevado de Famatina", "mountains": "Sierras Pampeanas", "located": {"country": "RA", "province": "prov-Argentina-12"}, "latitude": "-29.0", "longitude": "-67.85", "elevation": "6250"}, {"id": "mount-Aconcagua", "country": "RA", "name": "Aconcagua", "mountains": "Andes", "located": {"country": "RA", "province": "prov-Argentina-13"}, "latitude": "-32.65", "longitude": "-70.0", "elevation": "6962"}, {"id": "mount-NevadoElPlomo", "country": "RCH RA", "name": "Nevado El Plomo", "mountains": "Andes", "located": [{"country": "RCH", "province": "prov-Chile-13"}, {"country": "RA", "province": "prov-Argentina-13"}], "latitude": "-33.1", "longitude": "-70.06", "elevation": "6070"}, {"id": "mount-Tupungato", "country": "RA", "type": "volcano", "name": "Tupungato", "mountains": "Andes", "located": {"country": "RA", "province": "prov-Argentina-13"}, "latitude": "-33.35", "longitude": "-69.87", "elevation": "6550"}, {"id": "mount-Marmolejo", "country": "RA RCH", "type": "volcanic", "name": "Marmolejo", "mountains": "Andes", "located": [{"country": "RCH", "province": "prov-Chile-13"}, {"country": "RA", "province": "prov-Argentina-13"}], "latitude": "-33.75", "longitude": "-69.87", "elevation": "6108"}, {"id": "mount-Maipo", "country": "RCH RA", "type": "volcano", "name": "Maipo", "mountains": "Andes", "located": [{"country": "RCH", "province": "prov-Chile-13"}, {"country": "RA", "province": "prov-Argentina-13"}], "latitude": "-34.15", "longitude": "-69.83", "elevation": "5264"}, {"id": "mount-DescabezoGrande", "country": "RCH", "type": "volcano", "name": "Descabezo Grande", "mountains": "Andes", "located": {"country": "RCH", "province": "prov-Chile-7"}, "latitude": "-35.6", "longitude": "-70.75", "elevation": "3953"}, {"id": "mount-Callaqui", "country": "RCH", "type": "volcano", "name": "Callaqui", "mountains": "Andes", "located": {"country": "RCH", "province": "prov-Chile-8"}, "latitude": "-37.9", "longitude": "-71.45", "elevation": "3164"}, {"id": "mount-Llaima", "country": "RCH", "type": "volcano", "last_eruption": "2009-04-04", "name": "Llaima", "mountains": "Andes", "located": {"country": "RCH", "province": "prov-Chile-9"}, "latitude": "-38.7", "longitude": "-71.7", "elevation": "3145"}, {"id": "mount-Villarrica", "country": "RCH", "type": "volcano", "last_eruption": "2015-03-23", "name": "Villarrica", "mountains": "Andes", "located": {"country": "RCH", "province": "prov-Chile-9"}, "latitude": "-39.4", "longitude": "-71.9", "elevation": "2840"}, {"id": "mount-Lanin", "country": "RA RCH", "type": "volcanic", "name": "Lan\u00edn", "mountains": "Andes", "located": [{"country": "RCH", "province": "prov-Chile-9"}, {"country": "RA", "province": "prov-Argentina-15"}], "latitude": "-39.6", "longitude": "-71.5", "elevation": "3747"}, {"id": "mount-Tronador", "country": "RA RCH", "type": "volcanic", "name": "Tronador", "mountains": "Andes", "located": [{"country": "RCH", "province": "prov-Chile-10"}, {"country": "RA", "province": "prov-Argentina-16"}], "latitude": "-41.05", "longitude": "-71.9", "elevation": "3491"}, {"id": "mount-Valentin", "country": "RCH", "name": "Monte San Valentin", "mountains": "Andes", "located": {"country": "RCH", "province": "prov-Chile-11"}, "latitude": "-46.6", "longitude": "-73.35", "elevation": "4058"}, {"id": "mount-Torre", "country": "RA RCH", "name": "Cerro Torre", "mountains": "Andes", "located": [{"country": "RCH", "province": "prov-Chile-12"}, {"country": "RA", "province": "prov-Argentina-20"}], "latitude": "-49.3", "longitude": "-73.1", "elevation": "3128"}, {"id": "mount-Fitzroy", "country": "RA RCH", "name": "Cerro Fitzroy", "mountains": "Andes", "located": [{"country": "RCH", "province": "prov-Chile-12"}, {"country": "RA", "province": "prov-Argentina-20"}], "latitude": "-49.27", "longitude": "-73.04", "elevation": "3406"}, {"id": "mount-Darwin", "country": "RA RCH", "island": "island-TierraDelFuego", "name": "Monte Darwin", "mountains": "Andes", "located": [{"country": "RCH", "province": "prov-Chile-12"}, {"country": "RA", "province": "prov-Argentina-23"}], "latitude": "-54.75", "longitude": "-69.5", "elevation": "2488"}, {"id": "mount-Neblina", "country": "BR YV", "name": "Pico da Neblina", "mountains": "Brazilian Highlands", "located": [{"country": "BR", "province": "prov-Brazil-5"}, {"country": "YV", "province": "prov-Venezuela-2"}], "latitude": "0.8", "longitude": "-66.0", "elevation": "2994"}, {"id": "mount-AgulhasNegras", "country": "BR", "name": "Pico das Agulhas Negras", "mountains": "Brazilian Highlands", "located": {"country": "BR", "province": "prov-Brazil-13 prov-Brazil-19"}, "latitude": "-22.4", "longitude": "-44.65", "elevation": "2791"}, {"id": "mount-Bandeira", "country": "BR", "name": "Pico da Bandeira", "mountains": "Brazilian Highlands", "located": {"country": "BR", "province": "prov-Brazil-13 prov-Brazil-8"}, "latitude": "-20.44", "longitude": "-41.8", "elevation": "2892"}, {"id": "mount-PicoFriburgo", "country": "BR", "name": "Pico Maior de Friburgo", "mountains": "Serra do Mar", "located": {"country": "BR", "province": "prov-Brazil-19"}, "latitude": "-22.35", "longitude": "-42.6", "elevation": "2316"}, {"id": "mount-Zuckerhut", "country": "BR", "name": "Pao de Acucar", "located": {"country": "BR", "province": "prov-Brazil-19"}, "latitude": "-22.949", "longitude": "-43.15", "elevation": "395"}, {"id": "mount-Corcovado", "country": "BR", "name": "Corcovado", "located": {"country": "BR", "province": "prov-Brazil-19"}, "latitude": "-22.951", "longitude": "-43.2", "elevation": "710"}]